code_site;libelle_site;code_station;libelle_station;type_station;coordonnee_x_station;coordonnee_y_station;code_projection;longitude_station;latitude_station;influence_locale_station;commentaire_station;altitude_ref_alti_station;code_systeme_alti_site;code_commune_station;libelle_commune;code_departement;code_region;libelle_region;code_cours_eau;libelle_cours_eau;uri_cours_eau;descriptif_station;date_maj_station;date_ouverture_station;date_fermeture_station;commentaire_influence_locale_station;code_regime_station;qualification_donnees_station;code_finalite_station;type_contexte_loi_stat_station;type_loi_station;code_sandre_reseau_station;date_debut_ref_alti_station;date_activation_ref_alti_station;date_maj_ref_alti_station;libelle_departement;en_service
10110001;[Barbotteau] à Petit-Bourg;1011000101;[Barbotteau] à Petit-Bourg - Barbotteau;LIMNI;643352;1790354;39;-61.65898959694908;16.18940247103205;0;Implantation station 2m avant prise d'eau Conseil Général;13.9;0;97118;PETIT-BOURG;971;01;GUADELOUPE;00000000;NA;http://id.eaufrance.fr/CEA/00000000;NA;2021-10-11T00:00:00Z;2012-11-11T00:00:00Z;NA;NA;1;16;1;NA;NA;NA;2012-11-01T00:00:00Z;2017-07-11T00:00:00Z;2021-10-11T00:00:00Z;GUADELOUPE;TRUE
10150001;[Maison Forêt] à Petit-Bourg;1015000101;[Maison Forêt] à Petit-Bourg - MAISON DE LA FORÊT;LIMNI;639709;1788847;39;-61.693151781347254;16.175994532315958;0;NA;218;0;97118;PETIT-BOURG;971;01;GUADELOUPE;00000000;NA;http://id.eaufrance.fr/CEA/00000000;NA;2020-06-23T00:00:00Z;2001-07-01T00:00:00Z;NA;NA;1;16;NA;NA;NA;NA;2001-07-01T00:00:00Z;2017-07-17T00:00:00Z;2017-07-17T00:00:00Z;GUADELOUPE;TRUE
10160001;[Prise d'eau Duclos] à Petit-Bourg;1016000101;[Prise d'eau Duclos] à Petit-Bourg - Duclos;LIMNI;642560;1791430;39;-61.666331696939;16.199173717620607;0;Implantation station 1m avant prise d'eau AEP;100;0;97118;PETIT-BOURG;971;01;GUADELOUPE;00000000;NA;http://id.eaufrance.fr/CEA/00000000;NA;2020-06-26T00:00:00Z;2016-02-11T00:00:00Z;NA;NA;1;16;NA;NA;NA;NA;2016-02-11T00:00:00Z;2017-07-11T00:00:00Z;2017-07-11T00:00:00Z;GUADELOUPE;TRUE
10250001;[La Boucan] à Sainte-Rose;1025000101;[La Boucan] à Sainte-Rose - BOUCAN;LIMNI;642300;1800340;39;-61.66822174359779;16.279715360157738;0;NA;8;0;97129;SAINTE-ROSE;971;01;GUADELOUPE;00000000;NA;http://id.eaufrance.fr/CEA/00000000;NA;2020-06-23T00:00:00Z;2001-08-01T00:00:00Z;NA;NA;1;16;NA;NA;NA;NA;2001-08-01T00:00:00Z;2017-07-27T00:00:00Z;2017-07-27T00:00:00Z;GUADELOUPE;TRUE
10400001;[Ravine Bleue] à Sainte-Rose;1040000101;[Ravine Bleue] à Sainte-Rose - Ravbleue;LIMNI;636997;1801881;39;-61.717752569339325;16.29394928236156;0;implantation station 5m amont prise AEP;165;0;97129;SAINTE-ROSE;971;01;GUADELOUPE;00000000;NA;http://id.eaufrance.fr/CEA/00000000;NA;2020-06-23T00:00:00Z;2014-07-11T00:00:00Z;NA;NA;1;16;NA;NA;NA;NA;2014-07-11T00:00:00Z;2017-07-11T00:00:00Z;2017-07-11T00:00:00Z;GUADELOUPE;TRUE
11100001;[Prise d'eau] à Petit-Bourg;1110000101;[Prise d'eau] à Petit-Bourg - TRIANON;LIMNI;646700;1786895;39;-61.62789242527204;16.157941414571635;0;NA;115;0;97118;PETIT-BOURG;971;01;GUADELOUPE;00000000;NA;http://id.eaufrance.fr/CEA/00000000;NA;2020-06-23T00:00:00Z;2000-05-01T00:00:00Z;NA;NA;1;16;NA;NA;NA;NA;2000-05-01T00:00:00Z;2017-07-27T00:00:00Z;2017-07-27T00:00:00Z;GUADELOUPE;TRUE
11110001;[pont RN] à Petit-Bourg;1111000101;[pont RN] à Petit-Bourg - PETIT-BOURG PONT RN;LIMNI;649450;1789590;39;-61.6020054541109;16.182130429969686;0;NA;15;0;97118;PETIT-BOURG;971;01;GUADELOUPE;00000000;NA;http://id.eaufrance.fr/CEA/00000000;NA;2020-06-23T00:00:00Z;2016-02-01T00:00:00Z;NA;NA;1;16;NA;NA;NA;NA;2016-02-01T00:00:00Z;2017-07-17T00:00:00Z;2017-07-17T00:00:00Z;GUADELOUPE;TRUE
11200001;La Grande Rivière de Capesterre [Prise d'eau] à Capesterre-Belle-Eau;1120000101;La Grande Rivière de Capesterre [Prise d'eau] à Capesterre-Belle-Eau;LIMNI;648797;1777346;39;-61.60888488804209;16.07151381233285;0;Station de référence pour le suivi sécheresse;NA;NA;97107;CAPESTERRE-BELLE-EAU;971;01;GUADELOUPE;11200020;Grande Rivière de Capesterre;http://id.eaufrance.fr/CEA/11200020;NA;2020-06-23T00:00:00Z;2000-05-01T00:00:00Z;NA;NA;1;20;17;NA;NA;NA;NA;NA;NA;GUADELOUPE;TRUE
11200002;[pont RN] à Capesterre-Belle-Eau;1120000201;[pont RN] à Capesterre-Belle-Eau;LIMNI;653390;1775800;39;-61.566054216948;16.0572584538311;0;NA;NA;NA;97107;CAPESTERRE-BELLE-EAU;971;01;GUADELOUPE;00000000;NA;http://id.eaufrance.fr/CEA/00000000;NA;2021-01-19T00:00:00Z;2016-02-16T00:00:00Z;NA;NA;1;20;7;NA;NA;NA;NA;NA;NA;GUADELOUPE;TRUE
11310001;[Pont RD] à Trois-Rivières;1131000101;[Pont RD] à Trois-Rivières - TROIS-RIVIERES;LIMNI;643470;1765310;39;-61.65940388807984;15.963051431176549;0;NA;5;0;97132;TROIS-RIVIERES;971;01;GUADELOUPE;00000000;NA;http://id.eaufrance.fr/CEA/00000000;NA;2020-06-23T00:00:00Z;2016-10-01T00:00:00Z;NA;NA;1;16;NA;NA;NA;NA;2016-10-01T00:00:00Z;2017-07-27T00:00:00Z;2017-07-27T00:00:00Z;GUADELOUPE;TRUE
12120001;[Pont RN] à Baillif;1212000101;[Pont RN] à Baillif - Baillif;LIMNI;634864;1770513;39;-61.7395100474931;16.010562902141476;0;NA;15;0;97104;BAILLIF;971;01;GUADELOUPE;00000000;NA;http://id.eaufrance.fr/CEA/00000000;NA;2020-06-23T00:00:00Z;2001-08-01T00:00:00Z;NA;NA;1;16;NA;NA;NA;NA;2001-08-01T00:00:00Z;2017-07-27T00:00:00Z;2017-07-27T00:00:00Z;GUADELOUPE;TRUE
12210001;[Prise d'eau] à Vieux-Habitants;1221000101;[Prise d'eau] à Vieux-Habitants - VIEUX-HABITANTS BARTHOLE;LIMNI;636349;1778926;39;-61.72514947471947;16.08651871720763;0;NA;250;0;97134;VIEUX-HABITANTS;971;01;GUADELOUPE;00000000;NA;http://id.eaufrance.fr/CEA/00000000;NA;2020-06-23T00:00:00Z;2002-01-01T00:00:00Z;NA;NA;1;16;NA;NA;NA;NA;2002-01-01T00:00:00Z;2017-07-17T00:00:00Z;2017-07-17T00:00:00Z;GUADELOUPE;TRUE
12210002;[Pont RN] à Vieux-Habitants;1221000201;[Pont RN] à Vieux-Habitants - Vieux-Habitants Pont RN;LIMNI;632630;1775940;39;-61.760083096357434;16.059735031224207;0;NA;18;0;97134;VIEUX-HABITANTS;971;01;GUADELOUPE;00000000;NA;http://id.eaufrance.fr/CEA/00000000;NA;2020-06-23T00:00:00Z;2016-11-01T00:00:00Z;NA;NA;1;16;NA;NA;NA;NA;2016-11-01T00:00:00Z;2017-07-17T00:00:00Z;2017-07-17T00:00:00Z;GUADELOUPE;TRUE
12270001;[pont RD] à Bouillante;1227000101;[pont RD] à Bouillante - lostau;LIMNI;631980;1787295;39;-61.765524042298374;16.162398988891212;0;Implantation station pont RD15;25;0;97106;BOUILLANTE;971;01;GUADELOUPE;00000000;NA;http://id.eaufrance.fr/CEA/00000000;NA;2020-06-23T00:00:00Z;2017-06-01T00:00:00Z;NA;NA;1;16;NA;NA;NA;NA;2017-06-01T00:00:00Z;2017-07-11T00:00:00Z;2017-07-11T00:00:00Z;GUADELOUPE;TRUE
12320001;La rivière de Petite-Plaine à Pointe-Noire;1232000101;La rivière de Petite-Plaine à Pointe-Noire;LIMNI;630845;1794150;39;-61.77575644742216;16.22441694134202;0;NA;18;0;97121;POINTE-NOIRE;971;01;GUADELOUPE;12320020;Rivière de Petite-Plaine;http://id.eaufrance.fr/CEA/12320020;NA;2021-04-16T00:00:00Z;2016-11-01T00:00:00Z;NA;NA;1;16;NA;NA;NA;NA;2016-11-01T00:00:00Z;2017-07-27T00:00:00Z;2021-04-16T00:00:00Z;GUADELOUPE;TRUE
12360001;La rivière Deshaies à Deshaies;1236000101;La rivière Deshaies à Deshaies;LIMNI;630050;1802136;39;-61.782749114039326;16.296638305894867;0;NA;140;0;97111;DESHAIES;971;01;GUADELOUPE;12360100;Rivière Deshaies;http://id.eaufrance.fr/CEA/12360100;NA;2021-04-16T00:00:00Z;2011-11-01T00:00:00Z;NA;NA;1;16;NA;NA;NA;NA;2011-11-01T00:00:00Z;2017-07-17T00:00:00Z;2021-04-16T00:00:00Z;GUADELOUPE;TRUE
13320001;La ravine des Coudes à Morne-à-l'Eau;1332000101;La ravine des Coudes à Morne-à-l'Eau;LIMNI;666556.0750549;1805997.4909055;39;-61.44086224977424;16.3292906035638;0;Implantation station 5m amont seuil;4;0;97116;MORNE-A-L'EAU;971;01;GUADELOUPE;133-0020;Ravine des Coudes;http://id.eaufrance.fr/CEA/133-0020;NA;2021-10-11T00:00:00Z;2013-04-11T00:00:00Z;NA;NA;1;16;2;NA;NA;NA;2013-04-11T00:00:00Z;2017-07-11T00:00:00Z;2021-04-16T00:00:00Z;GUADELOUPE;TRUE
20140001;La rivière de l'Anse Céron au Prêcheur;2014000101;La rivière de l'Anse Céron au Prêcheur;LIMNI;690943.6880707;1640446.0851598;39;-61.225533373067734;14.831497784228842;4;NA;NA;NA;97219;PRECHEUR;972;02;MARTINIQUE;20140700;Rivière de l'Anse Céron;http://id.eaufrance.fr/CEA/20140700;NA;2021-06-15T00:00:00Z;2011-02-14T00:00:00Z;NA;Influence de la mer en hautes eaux;1;16;7;NA;NA;POH128,POH207,POH53;NA;NA;NA;MARTINIQUE;TRUE
21010001;La Grande Rivière à Grand'Rivière [Bourg Grand Rivière];2101000101;La Grande Rivière à Grand'Rivière [Bourg Grand Rivière] - 1;LIMNI;695994.8861052;1645096.7875032;39;-61.178256371193136;14.873158237583205;0;NA;NA;NA;97211;GRAND'RIVIERE;972;02;MARTINIQUE;21010860;Grande Rivière;http://id.eaufrance.fr/CEA/21010860;NA;2021-06-15T00:00:00Z;2019-04-12T00:00:00Z;NA;NA;1;16;17;NA;NA;POH128,POH207,POH53;NA;NA;NA;MARTINIQUE;TRUE
21010001;La Grande Rivière à Grand'Rivière [Bourg Grand Rivière];2101000102;La Grande Rivière à Grand'Rivière [Bourg Grand Rivière] - 2;LIMNI;695994.8861052;1645096.7875032;39;-61.178256371193136;14.873158237583205;0;NA;NA;NA;97211;GRAND'RIVIERE;972;02;MARTINIQUE;21010860;Grande Rivière;http://id.eaufrance.fr/CEA/21010860;NA;2021-06-15T00:00:00Z;2011-01-14T00:00:00Z;NA;NA;1;16;17;NA;NA;POH128,POH207,POH53;NA;NA;NA;MARTINIQUE;TRUE
21130001;La rivière Capot au Morne-Rouge [Mackintosh];2113000101;La rivière Capot au Morne-Rouge [Mackintosh];LIMNI;703325;1634475;39;-61.1109828503568;14.77662439589137;NA;NA;NA;NA;97218;MORNE-ROUGE;972;02;MARTINIQUE;211-0560;Rivière Capot;http://id.eaufrance.fr/CEA/211-0560;NA;2021-05-28T00:00:00Z;1962-01-01T00:00:00Z;1996-08-13T00:00:00Z;NA;1;16;NA;NA;NA;POH128,POH207,POH53;NA;NA;NA;MARTINIQUE;FALSE
21150001;La rivière Capot au Lorrain [Saut Babin];2115000101;La rivière Capot au Lorrain [Saut Babin];LIMNI;703775;1638400;39;-61.10649597521595;14.81205812137268;NA;NA;NA;NA;97214;LORRAIN;972;02;MARTINIQUE;211-0560;Rivière Capot;http://id.eaufrance.fr/CEA/211-0560;NA;2021-05-28T00:00:00Z;1962-01-01T00:00:00Z;2004-02-18T00:00:00Z;NA;1;16;NA;NA;NA;POH128,POH207,POH53;NA;NA;NA;MARTINIQUE;FALSE
21160001;La rivière Pirogue au Lorrain [Pont Desgrottes];2116000101;La rivière Pirogue au Lorrain [Pont Desgrottes];LIMNI;704280;1637600;39;-61.10186822776249;14.804790393484376;NA;NA;NA;NA;97214;LORRAIN;972;02;MARTINIQUE;21160950;Rvière Pirogue;http://id.eaufrance.fr/CEA/21160950;NA;2021-05-28T00:00:00Z;1951-01-01T00:00:00Z;1970-01-01T00:00:00Z;NA;1;16;NA;NA;NA;POH128,POH207,POH53;NA;NA;NA;MARTINIQUE;FALSE
22050001;La rivière du Lorrain au Lorrain [SCNA];2205000101;La rivière du Lorrain au Lorrain [SCNA];LIMNI;709287.3331782;1635802.6765488;39;-61.0555046682309;14.788161638123762;0;Station en amont immédiat de la prise AEP;NA;NA;97214;LORRAIN;972;02;MARTINIQUE;220-1300;Rivière du Lorrain;http://id.eaufrance.fr/CEA/220-1300;NA;2021-06-15T00:00:00Z;2011-02-08T00:00:00Z;NA;NA;1;20;17;NA;NA;POH128,POH207,POH53;NA;NA;NA;MARTINIQUE;TRUE
22050002;La rivière du Lorrain au Lorrain [confluence Pirogue];2205000201;La rivière du Lorrain au Lorrain [confluence Pirogue];LIMNI;708900;1634875;39;-61.05917641727554;14.779809287291522;NA;NA;NA;NA;97214;LORRAIN;972;02;MARTINIQUE;220-1300;Rivière du Lorrain;http://id.eaufrance.fr/CEA/220-1300;NA;2021-05-28T00:00:00Z;1963-03-27T00:00:00Z;1967-09-07T00:00:00Z;NA;1;16;NA;NA;NA;POH128,POH207,POH53;NA;NA;NA;MARTINIQUE;FALSE
22050003;La rivière du Lorrain au Lorrain [Pont de la Pirogue];2205000301;La rivière du Lorrain au Lorrain [Pont de la Pirogue];LIMNI;709110;1636750;39;-61.0570753973683;14.79673568840096;NA;NA;NA;NA;97214;LORRAIN;972;02;MARTINIQUE;220-1300;Rivière du Lorrain;http://id.eaufrance.fr/CEA/220-1300;NA;2021-05-28T00:00:00Z;1968-05-10T00:00:00Z;1970-08-01T00:00:00Z;NA;1;16;NA;NA;NA;POH128,POH207,POH53;NA;NA;NA;MARTINIQUE;FALSE
22210001;La rivière du Galion Bras Gommier Percé à Gros-Morne [Bras-Gommier];2221000101;La rivière du Galion Bras Gommier Percé à Gros-Morne [Bras-Gommier];LIMNI;711231.442077;1629479.1881969;39;-61.037961961802104;14.730869120836624;0;Station à l'amont immédiat de la prise AEP;NA;NA;97212;GROS-MORNE;972;02;MARTINIQUE;22211630;Rivière du Galion Bras Gommier Percé;http://id.eaufrance.fr/CEA/22211630;NA;2021-09-16T00:00:00Z;2011-01-24T00:00:00Z;NA;NA;1;20;17;NA;NA;POH128,POH207,POH53;NA;NA;NA;MARTINIQUE;TRUE
22250001;La rivière du Galion à la Trinité [Grand Galion];2225000101;La rivière du Galion à la Trinité [Grand Galion];LIMNI;719605.3756395;1628019.5337301;39;-60.96033726752382;14.717007963646392;0;NA;NA;NA;97230;TRINITE;972;02;MARTINIQUE;22251791;Rivière du Galion;http://id.eaufrance.fr/CEA/22251791;NA;2021-06-15T00:00:00Z;2011-10-06T00:00:00Z;NA;NA;1;16;17;NA;NA;POH128,POH207,POH53;NA;NA;NA;MARTINIQUE;TRUE
22250002;La rivière du Galion à la Trinité [Bassignac];2225000201;La rivière du Galion à la Trinité [Bassignac];LIMNI;716615;1629484;39;-60.98797774021621;14.730483450905444;NA;NA;NA;NA;97230;TRINITE;972;02;MARTINIQUE;222-1790;Rivière du Galion;http://id.eaufrance.fr/CEA/222-1790;NA;2021-05-28T00:00:00Z;1951-07-08T00:00:00Z;1995-03-21T00:00:00Z;NA;1;16;NA;NA;NA;POH128,POH207,POH53;NA;NA;NA;MARTINIQUE;FALSE
23010001;La rivière Dumauzé à Fort-de-France [Didier];2301000101;La rivière Dumauzé à Fort-de-France [Didier];LIMNI;705383;1621773;39;-61.09286827957069;14.661686699816888;0;NA;NA;NA;97209;FORT-DE-FRANCE;972;02;MARTINIQUE;23010580;Rivière Dumauzé;http://id.eaufrance.fr/CEA/23010580;NA;2021-06-15T00:00:00Z;2016-11-07T00:00:00Z;NA;NA;1;16;127;NA;NA;POH128,POH207,POH53;NA;NA;NA;MARTINIQUE;TRUE
23010002;La rivière Dumauzé à Fort-de-France [Absalon];2301000201;La rivière Dumauzé à Fort-de-France [Absalon];LIMNI;704871;1623436;39;-61.0974908554354;14.676753303631918;NA;NA;NA;NA;97209;FORT-DE-FRANCE;972;02;MARTINIQUE;23010580;Rivière Dumauzé;http://id.eaufrance.fr/CEA/23010580;NA;2020-07-08T00:00:00Z;2010-11-18T00:00:00Z;2013-12-27T00:00:00Z;NA;1;16;NA;NA;NA;NA;NA;NA;NA;MARTINIQUE;FALSE
23020001;La rivière Case-Navire à Schœlcher [Anse Madame];2302000101;La rivière Case-Navire à Schœlcher [Anse Madame];LIMNI;704623.7801852;1616985.7690844;39;-61.10028793672487;14.618484550646064;0;NA;NA;NA;97229;SCHŒLCHER;972;02;MARTINIQUE;230-0730;Rivière Case-Navire;http://id.eaufrance.fr/CEA/230-0730;NA;2021-06-15T00:00:00Z;2011-11-17T00:00:00Z;NA;NA;1;16;127;NA;NA;POH128,POH207,POH53;NA;NA;NA;MARTINIQUE;TRUE
23020002;La rivière Case-Navire à Schœlcher [Fond Rousseau];2302000201;La rivière Case-Navire à Schœlcher [Fond Rousseau];LIMNI;704875;1617875;39;-61.09788735926158;14.626501082151654;NA;NA;NA;NA;97229;SCHŒLCHER;972;02;MARTINIQUE;230-0730;Rivière Case-Navire;http://id.eaufrance.fr/CEA/230-0730;NA;2021-05-28T00:00:00Z;1987-05-27T00:00:00Z;2002-04-11T00:00:00Z;NA;1;16;NA;NA;NA;POH128,POH207,POH53;NA;NA;NA;MARTINIQUE;FALSE
23220001;La rivière du Carbet au Carbet [Fond Baise];2322000101;La rivière du Carbet au Carbet [Fond Baise];LIMNI;697125;1627600;39;-61.16908293736209;14.714960626452552;0;NA;NA;NA;97204;CARBET;972;02;MARTINIQUE;232-1600;Rivière du Carbet;http://id.eaufrance.fr/CEA/232-1600;NA;2021-05-28T00:00:00Z;1994-12-13T00:00:00Z;2002-12-24T00:00:00Z;NA;1;16;NA;NA;NA;POH128,POH207,POH53;NA;NA;NA;MARTINIQUE;FALSE
23290001;La Roxelane à Saint-Pierre [Bourg Saint Pierre];2329000101;La Roxelane à Saint-Pierre [Bourg Saint Pierre];LIMNI;696316.2679957;1631374.2629399;39;-61.17630805877177;14.749127233013526;0;NA;NA;NA;97225;SAINT-PIERRE;972;02;MARTINIQUE;232-0480;la Roxelane;http://id.eaufrance.fr/CEA/232-0480;NA;2021-06-15T00:00:00Z;2011-10-10T00:00:00Z;NA;NA;1;16;127;NA;NA;POH128,POH207,POH53;NA;NA;NA;MARTINIQUE;TRUE
24020001;La rivière du Longvilliers au Lamentin [Baleu];2402000101;La rivière du Longvilliers au Lamentin [Baleu];LIMNI;713643.5088685;1620423.8633081;39;-61.01630529160427;14.648854081373267;0;NA;NA;NA;97213;LAMENTIN;972;02;MARTINIQUE;240-0520;Rivière du Longvilliers;http://id.eaufrance.fr/CEA/240-0520;NA;2021-06-15T00:00:00Z;2016-11-17T00:00:00Z;NA;NA;1;16;27;NA;NA;POH128,POH207,POH53;NA;NA;NA;MARTINIQUE;TRUE
24230001;La rivière Madame à Fort-de-France [Pont de Chaine];2423000101;La rivière Madame à Fort-de-France [Pont de Chaine] - 1;LIMNI;707751.9745528;1616836.6274911;39;-61.07126941915495;14.616898410058214;0;NA;NA;NA;97209;FORT-DE-FRANCE;972;02;MARTINIQUE;242-0430;Rivière Madame;http://id.eaufrance.fr/CEA/242-0430;NA;2021-06-15T00:00:00Z;2009-04-07T00:00:00Z;NA;NA;1;16;127;NA;NA;POH128,POH207,POH53;NA;NA;NA;MARTINIQUE;TRUE
24230001;La rivière Madame à Fort-de-France [Pont de Chaine];2423000102;La rivière Madame à Fort-de-France [Pont de Chaine] - 2;LIMNI;707751.9745528;1616836.6274911;39;-61.07126941915495;14.616898410058214;0;NA;NA;NA;97209;FORT-DE-FRANCE;972;02;MARTINIQUE;242-0430;Rivière Madame;http://id.eaufrance.fr/CEA/242-0430;NA;2021-06-15T00:00:00Z;2009-04-07T00:00:00Z;NA;NA;1;16;127;NA;NA;POH128,POH207,POH53;NA;NA;NA;MARTINIQUE;TRUE
24230002;La rivière Madame à Fort-de-France [Pont de la Cartonnerie];2423000201;La rivière Madame à Fort-de-France [Pont de la Cartonnerie];LIMNI;707657;1616656;39;-61.07216502680843;14.615273482853578;0;NA;NA;NA;97209;FORT-DE-FRANCE;972;02;MARTINIQUE;242-0430;Rivière Madame;http://id.eaufrance.fr/CEA/242-0430;NA;2021-05-28T00:00:00Z;1961-12-16T00:00:00Z;1967-11-28T00:00:00Z;NA;1;16;NA;NA;NA;POH128,POH207,POH53;NA;NA;NA;MARTINIQUE;FALSE
25010001;La Lézarde à Gros-Morne [Palourde];2501000101;La Lézarde à Gros-Morne [Palourde];LIMNI;710073.4589938;1627860.3217084;39;-61.04884364849688;14.716331663631353;0;Levés topos réalisés le 15/09/2021: zéro d'échelle à 240.55m (NGM);240550;0;97212;GROS-MORNE;972;02;MARTINIQUE;25010670;La Lézarde;http://id.eaufrance.fr/CEA/25010670;NA;2021-10-13T00:00:00Z;2009-09-01T00:00:00Z;NA;NA;1;16;127;NA;NA;POH128,POH207,POH53;2021-09-15T00:00:00Z;2021-10-13T00:00:00Z;2021-10-13T00:00:00Z;MARTINIQUE;TRUE
25030001;La Lézarde à Gros-Morne [Lézarde 2];2503000101;La Lézarde à Gros-Morne [Lézarde 2];LIMNI;711740.2598015;1627125.3416332;39;-61.03342843864965;14.709559449233492;0;NA;NA;NA;97212;GROS-MORNE;972;02;MARTINIQUE;25--1480;La Lézarde;http://id.eaufrance.fr/CEA/25--1480;NA;2021-06-15T00:00:00Z;1962-06-13T00:00:00Z;NA;NA;1;16;7;NA;NA;POH128,POH207,POH53;NA;NA;NA;MARTINIQUE;TRUE
25040001;La rivière Petite Lézarde à Gros-Morne [Saint Maurice];2504000101;La rivière Petite Lézarde à Gros-Morne [Saint Maurice];LIMNI;716053.4683722;1623443.9180601;39;-60.99368984123671;14.675951230897187;0;Levés topos réalisés le 15/09/2021: zéro d'échelle à 48.10m (NGM);48100;0;97212;GROS-MORNE;972;02;MARTINIQUE;25040860;Rivière Petite Lézarde;http://id.eaufrance.fr/CEA/25040860;NA;2021-10-13T00:00:00Z;2011-01-28T00:00:00Z;NA;NA;1;16;127;NA;NA;POH128,POH207,POH53;2021-09-15T00:00:00Z;2021-10-13T00:00:00Z;2021-10-13T00:00:00Z;MARTINIQUE;TRUE
25110001;La rivière Blanche à Fort-de-France [Pont de l'Alma];2511000101;La rivière Blanche à Fort-de-France [Pont de l'Alma];LIMNI;705377.4067217;1626558.3809563;39;-61.09254522975355;14.704929927572651;0;NA;NA;NA;97209;FORT-DE-FRANCE;972;02;MARTINIQUE;251-1080;Rivière Blanche;http://id.eaufrance.fr/CEA/251-1080;NA;2021-06-15T00:00:00Z;1999-01-19T00:00:00Z;NA;NA;1;12;7;NA;NA;POH128,POH207,POH53;NA;NA;NA;MARTINIQUE;TRUE
25110002;La rivière Blanche à Fort-de-France [Alma];2511000201;La rivière Blanche à Fort-de-France [Alma];LIMNI;705225;1626650;39;-61.09395297144221;14.70576947496187;0;NA;NA;NA;97209;FORT-DE-FRANCE;972;02;MARTINIQUE;251-1080;Rivière Blanche;http://id.eaufrance.fr/CEA/251-1080;NA;2021-05-28T00:00:00Z;1962-01-19T00:00:00Z;1998-11-30T00:00:00Z;NA;1;16;NA;NA;NA;POH128,POH207,POH53;NA;NA;NA;MARTINIQUE;FALSE
25120001;La rivière Blanche à Saint-Joseph [Bouliki];2512000101;La rivière Blanche à Saint-Joseph [Bouliki];LIMNI;707436.4888441;1626357.9151875;39;-61.07344494924643;14.70296036815423;0;A l'amont d'une prise AEP;NA;NA;97224;SAINT-JOSEPH;972;02;MARTINIQUE;251-1080;Rivière Blanche;http://id.eaufrance.fr/CEA/251-1080;NA;2021-06-15T00:00:00Z;2009-09-04T00:00:00Z;NA;NA;1;16;127;NA;NA;POH128,POH207,POH53;NA;NA;NA;MARTINIQUE;TRUE
25120002;La rivière Blanche à Saint-Joseph [Bouliki aval];2512000201;La rivière Blanche à Saint-Joseph [Bouliki aval];LIMNI;707953.0050804;1625993.868812;39;-61.06867869749585;14.699630839560916;0;Station à l'aval d'une prise AEP;NA;NA;97224;SAINT-JOSEPH;972;02;MARTINIQUE;251-1080;Rivière Blanche;http://id.eaufrance.fr/CEA/251-1080;NA;2021-06-15T00:00:00Z;2011-11-09T00:00:00Z;NA;NA;1;16;7;NA;NA;POH128,POH207,POH53;NA;NA;NA;MARTINIQUE;TRUE
25120003;La rivière Blanche à Saint-Joseph [aval prise SICSM];2512000301;La rivière Blanche à Saint-Joseph [aval prise SICSM] - 1;LIMNI;711540.3027816;1623920.0469168;39;-61.035543710497144;14.680611760434642;0;Station à l'aval d'une prise AEP Levés topos réalisés le 15/09/2021: zéro d'échelle à 143.85m (NGM);143850;0;97224;SAINT-JOSEPH;972;02;MARTINIQUE;251-1080;Rivière Blanche;http://id.eaufrance.fr/CEA/251-1080;NA;2021-10-13T00:00:00Z;1971-08-07T00:00:00Z;NA;NA;1;16;127;NA;NA;POH128,POH207,POH53;2021-09-15T00:00:00Z;2021-10-13T00:00:00Z;2021-10-13T00:00:00Z;MARTINIQUE;TRUE
25120003;La rivière Blanche à Saint-Joseph [aval prise SICSM];2512000302;La rivière Blanche à Saint-Joseph [aval prise SICSM] - 2;LIMNI;711540.3027816;1623920.0469168;39;-61.035543710497144;14.680611760434642;0;Station à l'aval d'une prise AEP Levés topos réalisés le 15/09/2021: zéro d'échelle à 143.85m (NGM);143850;0;97224;SAINT-JOSEPH;972;02;MARTINIQUE;251-1080;Rivière Blanche;http://id.eaufrance.fr/CEA/251-1080;NA;2021-10-13T00:00:00Z;1971-08-07T00:00:00Z;NA;NA;1;16;127;NA;NA;POH128,POH207,POH53;2021-09-15T00:00:00Z;2021-10-13T00:00:00Z;2021-10-13T00:00:00Z;MARTINIQUE;TRUE
25140001;La rivière Blanche à Saint-Joseph [Fond Ferret];2514000101;La rivière Blanche à Saint-Joseph [Fond Ferret];LIMNI;712900;1623400;39;-61.02296453427664;14.675805437522962;0;NA;NA;NA;97224;SAINT-JOSEPH;972;02;MARTINIQUE;251-1080;Rivière Blanche;http://id.eaufrance.fr/CEA/251-1080;NA;2021-05-28T00:00:00Z;1968-10-29T00:00:00Z;1970-08-20T00:00:00Z;NA;1;16;NA;NA;NA;POH128,POH207,POH53;NA;NA;NA;MARTINIQUE;FALSE
25210001;La Lézarde au Lamentin [Pont RN 1];2521000101;La Lézarde au Lamentin [Pont RN 1] - 1;LIMNI;716986.8200619;1617832.9806811;39;-60.9854897268923;14.625176459683331;0;zéro échelle Z=6.26m NGM clou de sauvegarde Z=7.39m NGM;6.26;0;97213;LAMENTIN;972;02;MARTINIQUE;25--1480;La Lézarde;http://id.eaufrance.fr/CEA/25--1480;NA;2021-08-06T00:00:00Z;1997-07-15T00:00:00Z;NA;NA;1;16;127;NA;NA;POH128,POH207,POH53;2018-09-01T00:00:00Z;2019-12-03T00:00:00Z;2021-05-28T00:00:00Z;MARTINIQUE;TRUE
25210001;La Lézarde au Lamentin [Pont RN 1];2521000102;La Lézarde au Lamentin [Pont RN 1] - 2;LIMNI;716986.8200619;1617832.9806811;39;-60.9854897268923;14.625176459683331;0;Levés topos réalisés en juin 2019: zéro d'échelle: Z=6.26m NGM clou de sauvegarde: Z=7.39m NGM;6.26;0;97213;LAMENTIN;972;02;MARTINIQUE;25--1480;La Lézarde;http://id.eaufrance.fr/CEA/25--1480;NA;2021-08-06T00:00:00Z;1997-07-15T00:00:00Z;NA;NA;1;16;127;NA;NA;POH128,POH207,POH53;2018-09-01T00:00:00Z;2019-12-03T00:00:00Z;2021-05-28T00:00:00Z;MARTINIQUE;TRUE
25210002;La Lézarde au Lamentin [Pont de Mare];2521000201;La Lézarde au Lamentin [Pont de Mare];LIMNI;715575;1620750;39;-60.99835227826615;14.651647471576409;0;NA;NA;NA;97213;LAMENTIN;972;02;MARTINIQUE;25--1480;La Lézarde;http://id.eaufrance.fr/CEA/25--1480;NA;2021-05-28T00:00:00Z;1961-05-16T00:00:00Z;1970-08-21T00:00:00Z;NA;1;16;NA;NA;NA;POH128,POH207,POH53;NA;NA;NA;MARTINIQUE;FALSE
25210003;La Lézarde au Lamentin [Pont du Soudon];2521000301;La Lézarde au Lamentin [Pont du Soudon];LIMNI;716050;1620070;39;-60.99399965668388;14.64546505407946;NA;NA;NA;NA;97213;LAMENTIN;972;02;MARTINIQUE;25--1480;La Lézarde;http://id.eaufrance.fr/CEA/25--1480;NA;2021-05-28T00:00:00Z;1971-07-10T00:00:00Z;1993-12-20T00:00:00Z;NA;1;16;NA;NA;NA;POH128,POH207,POH53;NA;NA;NA;MARTINIQUE;FALSE
25320001;au Lamentin [cote 45];2532000101;au Lamentin [cote 45];LIMNI;719150;1619890;39;-60.96524435887861;14.64358877436813;NA;NA;NA;NA;97213;LAMENTIN;972;02;MARTINIQUE;25320270;NA;http://id.eaufrance.fr/CEA/25320270;NA;2021-05-28T00:00:00Z;1976-03-02T00:00:00Z;1982-12-13T00:00:00Z;NA;1;16;NA;NA;NA;POH128,POH207,POH53;NA;NA;NA;MARTINIQUE;FALSE
25330001;La Petite Rivière au Lamentin [Brasserie Lorraine];2533000101;La Petite Rivière au Lamentin [Brasserie Lorraine] - 1;LIMNI;718204.1076938;1617834.7372607;39;-60.97419328033625;14.625094369368073;0;Levés topos réalisés en juin 2019: échelle de 1m: zéro d'échelle: Z=8.48m NGM clou de sauvegarde: Z=9.50m NGM échelle de 3m: zéro d'échelle: Z=8.49m NGM clou de sauvegarde: Z=11.75m NGM;8.48;0;97213;LAMENTIN;972;02;MARTINIQUE;253-0750;Petite Rivière;http://id.eaufrance.fr/CEA/253-0750;NA;2021-08-06T00:00:00Z;2010-07-15T00:00:00Z;NA;NA;1;16;127;NA;NA;POH128,POH207,POH53;2018-09-01T00:00:00Z;2019-12-03T00:00:00Z;2021-05-28T00:00:00Z;MARTINIQUE;TRUE
25330001;La Petite Rivière au Lamentin [Brasserie Lorraine];2533000102;La Petite Rivière au Lamentin [Brasserie Lorraine] - 2;LIMNI;718204.1076938;1617834.7372607;39;-60.97419328033625;14.625094369368073;0;Levés topos réalisés en juin 2019: échelle de 1m: zéro d'échelle: Z=8.48m NGM clou de sauvegarde: Z=9.50m NGM échelle de 3m: zéro d'échelle: Z=8.49m NGM clou de sauvegarde: Z=11.75m NGM;8.48;0;97213;LAMENTIN;972;02;MARTINIQUE;253-0750;Petite Rivière;http://id.eaufrance.fr/CEA/253-0750;NA;2021-08-06T00:00:00Z;2010-07-15T00:00:00Z;NA;NA;1;16;127;NA;NA;POH128,POH207,POH53;2018-09-01T00:00:00Z;2019-12-03T00:00:00Z;2021-05-28T00:00:00Z;MARTINIQUE;TRUE
25410001;La Lézarde au Lamentin [Ressource];2541000101;La Lézarde au Lamentin [Ressource];LIMNI;716783.4458425;1616350.7831606;39;-60.98749901087511;14.611799758871022;0;"Station installée le 24/07/1995 14h29; hors service le 16/08/1995 23h50. Remise en service en novembre 2016";NA;NA;97213;LAMENTIN;972;02;MARTINIQUE;25--1480;La Lézarde;http://id.eaufrance.fr/CEA/25--1480;NA;2021-06-15T00:00:00Z;1995-07-24T00:00:00Z;NA;NA;1;16;27;NA;NA;POH128,POH207,POH53;NA;NA;NA;MARTINIQUE;TRUE
25420001;[Canal Mamin] au Lamentin;2542000101;[Canal Mamin] au Lamentin;LIMNI;715969.6007451;1616994.9994109;39;-60.99499820172672;14.617685939348986;0;Levés topos réalisés en juin 2019: zéro d'échelle: Z=0.74m NGM clou de sauvegarde: Z=3.57m NGM;0.74;0;97213;LAMENTIN;972;02;MARTINIQUE;25420100;NA;http://id.eaufrance.fr/CEA/25420100;NA;2021-08-06T00:00:00Z;2016-12-08T00:00:00Z;NA;NA;1;16;2;NA;NA;POH128,POH207,POH53;2016-12-08T00:00:00Z;2019-12-03T00:00:00Z;2021-05-28T00:00:00Z;MARTINIQUE;TRUE
25440001;La rivière Caleçon au Lamentin [Caleçon];2544000101;La rivière Caleçon au Lamentin [Caleçon];LIMNI;719455.9065952;1616583.7229292;39;-60.96268103857702;14.613689171887495;0;NA;NA;NA;97213;LAMENTIN;972;02;MARTINIQUE;254-0160;Rivière Caleçon;http://id.eaufrance.fr/CEA/254-0160;NA;2021-06-15T00:00:00Z;2014-06-20T00:00:00Z;NA;NA;1;16;27;NA;NA;POH128,POH207,POH53;NA;NA;NA;MARTINIQUE;TRUE
25440002;La rivière Caleçon au Lamentin [GaigneronRD];2544000201;La rivière Caleçon au Lamentin [GaigneronRD];LIMNI;715709.2314736;1615478.6454998;39;-60.99753844982884;14.604004970685583;0;NA;NA;NA;97213;LAMENTIN;972;02;MARTINIQUE;254-0160;Rivière Caleçon;http://id.eaufrance.fr/CEA/254-0160;NA;2021-06-15T00:00:00Z;2014-06-27T00:00:00Z;NA;NA;1;16;27;NA;NA;POH128,POH207,POH53;NA;NA;NA;MARTINIQUE;TRUE
25440003;La rivière Caleçon au Lamentin [Autoroute];2544000301;La rivière Caleçon au Lamentin [Autoroute];LIMNI;714982;1615024;39;-61.00432358516281;14.599954616090589;NA;NA;NA;NA;97213;LAMENTIN;972;02;MARTINIQUE;254-0160;Rivière Caleçon;http://id.eaufrance.fr/CEA/254-0160;NA;2021-05-28T00:00:00Z;2011-01-14T00:00:00Z;2013-11-25T00:00:00Z;NA;1;16;NA;NA;NA;POH128,POH207,POH53;NA;NA;NA;MARTINIQUE;FALSE
26040001;La ravine Gaschette au Robert [Gaschette];2604000101;La ravine Gaschette au Robert [Gaschette];LIMNI;721821.0461091;1624910.3308752;39;-60.94003139574421;14.688732454822745;0;NA;NA;NA;97222;ROBERT;972;02;MARTINIQUE;26040350;Ravine Gaschette;http://id.eaufrance.fr/CEA/26040350;NA;2021-06-15T00:00:00Z;2010-11-29T00:00:00Z;NA;NA;1;16;7;NA;NA;POH128,POH207,POH53;NA;NA;NA;MARTINIQUE;TRUE
26230001;La rivière du Simon au François [Fontane2];2623000101;La rivière du Simon au François [Fontane2];LIMNI;728750.6207626;1613347.235153;39;-60.87671558164085;14.583676835627866;0;NA;NA;NA;97210;FRANCOIS;972;02;MARTINIQUE;26230490;Rivière du Simon;http://id.eaufrance.fr/CEA/26230490;NA;2021-06-15T00:00:00Z;2011-09-27T00:00:00Z;NA;NA;1;16;7;NA;NA;POH128,POH207,POH53;NA;NA;NA;MARTINIQUE;TRUE
26230002;La rivière du Simon au François [Fontane];2623000201;La rivière du Simon au François [Fontane];LIMNI;728350;1613000;39;-60.88046238286024;14.580573212466778;NA;NA;NA;NA;97210;FRANCOIS;972;02;MARTINIQUE;26230490;Rivière du Simon;http://id.eaufrance.fr/CEA/26230490;NA;2021-05-28T00:00:00Z;1995-04-18T00:00:00Z;2003-10-23T00:00:00Z;NA;1;16;NA;NA;NA;POH128,POH207,POH53;NA;NA;NA;MARTINIQUE;FALSE
27010001;La rivière de Paquemar au Vauclin [Morne Jalouse];2701000101;La rivière de Paquemar au Vauclin [Morne Jalouse];LIMNI;731600;1606150;39;-60.85091010431558;14.518406682220784;NA;NA;NA;NA;97232;VAUCLIN;972;02;MARTINIQUE;27010280;Rivière de Paquemar;http://id.eaufrance.fr/CEA/27010280;NA;2021-05-28T00:00:00Z;1970-09-27T00:00:00Z;1993-01-05T00:00:00Z;NA;1;16;NA;NA;NA;POH128,POH207,POH53;NA;NA;NA;MARTINIQUE;FALSE
27150001;La rivière Massel au Marin [Puyferrat - Pont RN 6];2715000101;La rivière Massel au Marin [Puyferrat - Pont RN 6];LIMNI;731393.4330328;1604233.1882553;39;-60.85299293201425;14.501105405013826;0;Station remise en service fin octobre 2010;NA;NA;97217;MARIN;972;02;MARTINIQUE;27150340;Rivière Massel;http://id.eaufrance.fr/CEA/27150340;NA;2021-06-15T00:00:00Z;1994-12-13T00:00:00Z;NA;NA;1;16;7;NA;NA;POH128,POH207,POH53;NA;NA;NA;MARTINIQUE;TRUE
27230001;Le Crêve Cœur à Sainte-Anne [cote 10];2723000101;Le Crêve Cœur à Sainte-Anne [cote 10];LIMNI;731380;1598490;39;-60.85361648684422;14.449215371975685;NA;NA;NA;NA;97226;SAINTE-ANNE;972;02;MARTINIQUE;27230240;Crêve coeur;http://id.eaufrance.fr/CEA/27230240;NA;2021-05-28T00:00:00Z;1995-09-07T00:00:00Z;1999-01-11T00:00:00Z;NA;1;16;NA;NA;NA;POH128,POH207,POH53;NA;NA;NA;MARTINIQUE;FALSE
28030001;La rivière les Coulisses à Rivière-Salée [Petit-Bourg];2803000101;La rivière les Coulisses à Rivière-Salée [Petit-Bourg] - 1;LIMNI;719804.0857729;1609272.5937795;39;-60.96005850523227;14.547599076943955;0;NA;NA;NA;97221;RIVIERE-SALEE;972;02;MARTINIQUE;280-0650;Rivière les Coulisses;http://id.eaufrance.fr/CEA/280-0650;NA;2021-06-21T00:00:00Z;1995-07-07T00:00:00Z;NA;NA;1;16;127;NA;NA;POH128,POH207,POH53;NA;NA;NA;MARTINIQUE;TRUE
28030001;La rivière les Coulisses à Rivière-Salée [Petit-Bourg];2803000102;La rivière les Coulisses à Rivière-Salée [Petit-Bourg] - 2;LIMNI;719804.0857729;1609272.5937795;39;-60.96005850523227;14.547599076943955;0;NA;NA;NA;97221;RIVIERE-SALEE;972;02;MARTINIQUE;280-0650;Rivière les Coulisses;http://id.eaufrance.fr/CEA/280-0650;NA;2021-10-01T00:00:00Z;1995-07-07T00:00:00Z;NA;NA;1;16;127;NA;NA;POH128,POH207,POH53;NA;NA;NA;MARTINIQUE;TRUE
28040001;La rivière de Trenelle à Rivière-Salée [Habitation Boulevard];2804000101;La rivière de Trenelle à Rivière-Salée [Habitation Boulevard];LIMNI;719330;1607000;39;-60.96464444849631;14.527102542087798;NA;NA;NA;NA;97221;RIVIERE-SALEE;972;02;MARTINIQUE;28040610;Rivière de Trenelle;http://id.eaufrance.fr/CEA/28040610;NA;2021-05-28T00:00:00Z;1975-06-17T00:00:00Z;1978-12-01T00:00:00Z;NA;1;16;NA;NA;NA;POH128,POH207,POH53;NA;NA;NA;MARTINIQUE;FALSE
28040002;La rivière l'Abandon à Rivière-Salée [Pont Violon - RN5];2804000201;La rivière l'Abandon à Rivière-Salée [Pont Violon - RN5];LIMNI;717511;1607819;39;-60.98144987035239;14.534648900814274;NA;NA;NA;NA;97221;RIVIERE-SALEE;972;02;MARTINIQUE;28040790;Rivière l'Abandon;http://id.eaufrance.fr/CEA/28040790;NA;2021-10-12T00:00:00Z;2021-03-17T00:00:00Z;NA;NA;1;16;2;NA;NA;POH128,POH207,POH53;NA;NA;NA;MARTINIQUE;TRUE
28050001;La ravine de la Laugier à Rivière-Salée [Laugier];2805000101;La ravine de la Laugier à Rivière-Salée [Laugier];LIMNI;717958.1619612;1606671.3865762;39;-60.97739626723659;14.524243370215286;0;zéro échelle nivelé par le cabinet couvreur (03/05/19): 3.45 m NGM;3.45;0;97221;RIVIERE-SALEE;972;02;MARTINIQUE;28050210;Ravine de la Laugier;http://id.eaufrance.fr/CEA/28050210;NA;2021-08-06T00:00:00Z;2017-04-25T00:00:00Z;NA;NA;1;16;27;NA;NA;POH128,POH207,POH53;2017-04-25T00:00:00Z;2019-12-19T00:00:00Z;2021-05-28T00:00:00Z;MARTINIQUE;TRUE
28050002;Le ravin Médecin à Rivière-Salée [Médecin];2805000201;Le ravin Médecin à Rivière-Salée [Médecin];LIMNI;717323.6871992;1606654.0851279;39;-60.9832828678461;14.52413773835367;0;zéro échelle nivelé par le cabinet couvreur (03/05/19): 0.98 m NGM;0.98;0;97221;RIVIERE-SALEE;972;02;MARTINIQUE;28050230;Ravin Médecin;http://id.eaufrance.fr/CEA/28050230;NA;2021-08-06T00:00:00Z;2017-09-13T00:00:00Z;NA;NA;1;16;27;NA;NA;POH128,POH207,POH53;2017-09-13T00:00:00Z;2019-12-19T00:00:00Z;2021-05-28T00:00:00Z;MARTINIQUE;TRUE
28080001;La rivière la Manche à Ducos [Pont RN7 Manche];2808000101;La rivière la Manche à Ducos [Pont RN7 Manche];LIMNI;719266.0268643;1611181.3693237;39;-60.96489169644012;14.564889911297612;0;NA;NA;NA;97207;DUCOS;972;02;MARTINIQUE;280-0350;Rivière la Manche;http://id.eaufrance.fr/CEA/280-0350;NA;2021-06-15T00:00:00Z;2012-01-09T00:00:00Z;NA;NA;1;16;7;NA;NA;POH128,POH207,POH53;NA;NA;NA;MARTINIQUE;TRUE
28120001;La Petite Rivière Pilote à Rivière-Pilote [Madeleine];2812000101;La Petite Rivière Pilote à Rivière-Pilote [Madeleine];LIMNI;725810.7422239;1603629.0168862;39;-60.9048188281316;14.49611420545995;0;Levés topos réalisés en juin 2019: zéro d'échelle: Z=8.25m NGM clou de sauvegarde: Z=9.26m NGM;8.25;0;97220;RIVIERE-PILOTE;972;02;MARTINIQUE;281-0420;Petite Rivière Pilote;http://id.eaufrance.fr/CEA/281-0420;NA;2021-08-06T00:00:00Z;2012-01-05T00:00:00Z;NA;NA;1;16;127;NA;NA;POH128,POH207,POH53;2012-01-05T00:00:00Z;2019-12-19T00:00:00Z;2021-05-28T00:00:00Z;MARTINIQUE;TRUE
28220001;La rivière Oman à Sainte-Luce [Morne Lavison];2822000101;La rivière Oman à Sainte-Luce [Morne Lavison];LIMNI;719475;1602725;39;-60.96365267587328;14.488462521688607;NA;NA;NA;NA;97227;SAINTE-LUCE;972;02;MARTINIQUE;282-0230;Rivière Oman;http://id.eaufrance.fr/CEA/282-0230;NA;2021-05-28T00:00:00Z;1981-05-05T00:00:00Z;1995-01-01T00:00:00Z;NA;1;16;NA;NA;NA;POH128,POH207,POH53;NA;NA;NA;MARTINIQUE;FALSE
28240001;La rivière Oman à Sainte-Luce [Dormante];2824000101;La rivière Oman à Sainte-Luce [Dormante];LIMNI;719700.9787652;1602470.1484286;39;-60.96157797438416;14.486141541724638;0;NA;NA;NA;97227;SAINTE-LUCE;972;02;MARTINIQUE;282-0230;Rivière Oman;http://id.eaufrance.fr/CEA/282-0230;NA;2021-06-15T00:00:00Z;1994-12-13T00:00:00Z;NA;NA;1;16;17;NA;NA;POH128,POH207,POH53;NA;NA;NA;MARTINIQUE;TRUE
29020001;Le fond Placide au Diamant [Petits Lézards];2902000101;Le fond Placide au Diamant [Petits Lézards];LIMNI;712140;1602530;39;-61.03169520127248;14.487280204523405;NA;NA;NA;NA;97206;DIAMANT;972;02;MARTINIQUE;290-0140;Fond Placide;http://id.eaufrance.fr/CEA/290-0140;NA;2021-05-28T00:00:00Z;1985-01-01T00:00:00Z;1992-12-31T00:00:00Z;NA;1;16;NA;NA;NA;POH128,POH207,POH53;NA;NA;NA;MARTINIQUE;FALSE
30130001;Le Mro wa Gouloué à Mamoudzou [Passamainty];3013000101;Le Mro wa Gouloué à Mamoudzou [Passamainty];LIMNI;522322;8584901;41;45.20568063470727;-12.800646372637011;0;NA;NA;NA;97611;MAMOUDZOU;976;06;MAYOTTE;30131400;Mro wa Gouloué;http://id.eaufrance.fr/CEA/30131400;NA;2021-01-19T00:00:00Z;2010-02-04T00:00:00Z;NA;NA;1;16;127;NA;NA;NA;NA;NA;NA;MAYOTTE;TRUE
30140001;Le Mro wa Kwalé à Mamoudzou [Kwalé Station];3014000101;Le Mro wa Kwalé à Mamoudzou [Kwalé Station];LIMNI;520155;8585286;41;45.18571087128212;-12.797179720770773;3;NA;NA;NA;97611;MAMOUDZOU;976;06;MAYOTTE;30141600;Mro wa Kwalé;http://id.eaufrance.fr/CEA/30141600;NA;2021-01-19T00:00:00Z;2007-01-01T00:00:00Z;NA;NA;1;16;127;NA;NA;NA;NA;NA;NA;MAYOTTE;TRUE
30210001;Le Mro wa Mgombani à Koungou [Mgombani];3021000101;Le Mro wa Mgombani à Koungou [Mgombani];LIMNI;519363;8592310;41;45.178368783166704;-12.733667892797838;0;NA;NA;NA;97610;KOUNGOU;976;06;MAYOTTE;30211200;Mro wa Mgombani;http://id.eaufrance.fr/CEA/30211200;NA;2021-01-19T00:00:00Z;2010-01-01T00:00:00Z;NA;NA;1;16;127;NA;NA;NA;NA;NA;NA;MAYOTTE;TRUE
30330001;Le Mro wa Tanabé à Bandraboua [Dzoumogné Retenue];3033000101;Le Mro wa Tanabé à Bandraboua [Dzoumogné Retenue];LIMNI;511602;8594348;41;45.10686812668245;-12.71527698880562;0;NA;NA;NA;97602;BANDRABOUA;976;06;MAYOTTE;30330201;Mro wa Tanabé;http://id.eaufrance.fr/CEA/30330201;NA;2021-01-19T00:00:00Z;2002-02-02T00:00:00Z;NA;NA;1;16;127;NA;NA;NA;NA;NA;NA;MAYOTTE;TRUE
30330002;Le Mro wa Mjihari à Bandraboua [Dzoumogné Ouest];3033000201;Le Mro wa Mjihari à Bandraboua [Dzoumogné Ouest];LIMNI;512041;8593568;41;45.11091489225169;-12.722328784927376;0;NA;NA;NA;97602;BANDRABOUA;976;06;MAYOTTE;30333300;Mro wa Mjihari;http://id.eaufrance.fr/CEA/30333300;NA;2021-01-19T00:00:00Z;1995-10-17T00:00:00Z;NA;NA;1;16;127;NA;NA;NA;NA;NA;NA;MAYOTTE;TRUE
30330003;Le Mro wa Mjihari à Bandraboua [Mapouéra];3033000301;Le Mro wa Mjihari à Bandraboua [Mapouéra];LIMNI;510837;8594052;41;45.0998226263511;-12.717956433037706;0;NA;NA;NA;97602;BANDRABOUA;976;06;MAYOTTE;30333300;Mro wa Mjihari;http://id.eaufrance.fr/CEA/30333300;NA;2021-01-19T00:00:00Z;2006-01-01T00:00:00Z;NA;NA;1;16;12;NA;NA;NA;NA;NA;NA;MAYOTTE;TRUE
30330004;[La Méresse] à Bandraboua;3033000401;[La Méresse] à Bandraboua;LIMNI;514717;8592494;41;45.13556980604943;-12.732029374305313;0;NA;NA;NA;97602;BANDRABOUA;976;06;MAYOTTE;30336800;NA;http://id.eaufrance.fr/CEA/30336800;NA;2021-04-16T00:00:00Z;2016-01-01T00:00:00Z;NA;NA;1;16;127;NA;NA;NA;NA;NA;NA;MAYOTTE;TRUE
30330005;Le Mro wa Mouhogoni à Bandraboua [Mouhogoni];3033000501;Le Mro wa Mouhogoni à Bandraboua [Mouhogoni];LIMNI;512700;8593309;41;45.11698629231042;-12.724668282873004;0;NA;NA;NA;97602;BANDRABOUA;976;06;MAYOTTE;30334500;Mro wa Mouhogoni;http://id.eaufrance.fr/CEA/30334500;NA;2021-01-19T00:00:00Z;1998-10-27T00:00:00Z;NA;NA;1;16;127;NA;NA;NA;NA;NA;NA;MAYOTTE;TRUE
30350001;Le Mro wa Bouyouni à Bandraboua [Bouyouni Bas];3035000101;Le Mro wa Bouyouni à Bandraboua [Bouyouni Bas];LIMNI;515270;8591193;41;45.140670399020394;-12.743791491246728;0;NA;NA;NA;97602;BANDRABOUA;976;06;MAYOTTE;30351400;Mro wa Bouyouni;http://id.eaufrance.fr/CEA/30351400;NA;2021-01-19T00:00:00Z;2008-05-01T00:00:00Z;NA;NA;1;16;127;NA;NA;NA;NA;NA;NA;MAYOTTE;TRUE
30350002;Le Mro wa Bouyouni à Tsingoni [Bouyouni Haut];3035000201;Le Mro wa Bouyouni à Tsingoni [Bouyouni Haut];LIMNI;516112;8589338;41;45.148436831685245;-12.760561753619132;0;NA;NA;NA;97617;TSINGONI;976;06;MAYOTTE;30351400;Mro wa Bouyouni;http://id.eaufrance.fr/CEA/30351400;NA;2021-01-19T00:00:00Z;2013-01-01T00:00:00Z;NA;NA;1;16;127;NA;NA;NA;NA;NA;NA;MAYOTTE;TRUE
30360001;Le Mro wa Longoni à Koungou [Longoni];3036000101;Le Mro wa Longoni à Koungou [Longoni];LIMNI;517900;8591883;41;45.164894403324546;-12.737537929720675;0;NA;NA;NA;97610;KOUNGOU;976;06;MAYOTTE;30361800;Mro wa Longoni;http://id.eaufrance.fr/CEA/30361800;NA;2021-01-19T00:00:00Z;2016-01-01T00:00:00Z;NA;NA;1;16;127;NA;NA;NA;NA;NA;NA;MAYOTTE;TRUE
30450001;Le Mroni Boungoumouhé à M'Tsangamouji [Boungoumouhé];3045000101;Le Mroni Boungoumouhé à M'Tsangamouji [Boungoumouhé];LIMNI;510684;8589257;41;45.09843003479872;-12.76131758241754;0;NA;NA;NA;97613;M'TSANGAMOUJI;976;06;MAYOTTE;30452800;Mroni Boungoumouhé;http://id.eaufrance.fr/CEA/30452800;NA;2021-01-19T00:00:00Z;1995-05-22T00:00:00Z;NA;NA;1;16;127;NA;NA;NA;NA;NA;NA;MAYOTTE;TRUE
30510001;Le Mro wa Chirini à Tsingoni [Soulou];3051000101;Le Mro wa Chirini à Tsingoni [Soulou];LIMNI;511610;8587696;41;45.10696705297482;-12.775430172568116;0;NA;NA;NA;97617;TSINGONI;976;06;MAYOTTE;30512200;Mro wa Chirini;http://id.eaufrance.fr/CEA/30512200;NA;2021-01-19T00:00:00Z;1995-05-16T00:00:00Z;NA;NA;1;16;127;NA;NA;NA;NA;NA;NA;MAYOTTE;TRUE
30520001;Le Mrowalé à Tsingoni [Mrowalé];3052000101;Le Mrowalé à Tsingoni [Mrowalé];LIMNI;512000;8586672;41;45.11056428413429;-12.784688572162136;0;NA;NA;NA;97617;TSINGONI;976;06;MAYOTTE;30522000;Mrowalé;http://id.eaufrance.fr/CEA/30522000;NA;2021-01-19T00:00:00Z;1995-01-02T00:00:00Z;NA;NA;1;16;127;NA;NA;NA;NA;NA;NA;MAYOTTE;TRUE
30530001;Le Mro wa Ourovéni à Tsingoni [Mouala];3053000101;Le Mro wa Ourovéni à Tsingoni [Mouala];LIMNI;515946;8588145;41;45.14691373575663;-12.77135072611845;0;NA;NA;NA;97617;TSINGONI;976;06;MAYOTTE;30530200;Mro wa Ourovéni;http://id.eaufrance.fr/CEA/30530200;NA;2021-01-19T00:00:00Z;2016-01-01T00:00:00Z;NA;NA;1;16;127;NA;NA;NA;NA;NA;NA;MAYOTTE;TRUE
30530002;Le Mro wa Ourovéni à Tsingoni [Ouroveni Pont];3053000201;Le Mro wa Ourovéni à Tsingoni [Ouroveni Pont];LIMNI;513857;8584070;41;45.12768591267619;-12.808210302395752;0;NA;NA;NA;97617;TSINGONI;976;06;MAYOTTE;30530200;Mro wa Ourovéni;http://id.eaufrance.fr/CEA/30530200;NA;2021-01-19T00:00:00Z;2016-01-01T00:00:00Z;NA;NA;1;16;127;NA;NA;NA;NA;NA;NA;MAYOTTE;TRUE
30540001;Le Mro wa Coconi à Ouangani [Hapandzo];3054000101;Le Mro wa Coconi à Ouangani [Hapandzo];LIMNI;514332;8581211;41;45.132076288300766;-12.834061555431033;0;NA;NA;NA;97614;OUANGANI;976;06;MAYOTTE;30540400;Mro wa Coconi;http://id.eaufrance.fr/CEA/30540400;NA;2020-06-23T00:00:00Z;1999-01-04T00:00:00Z;NA;NA;1;16;127;NA;NA;NA;NA;NA;NA;MAYOTTE;TRUE
30730001;Le Mroni Antanana à Kani-Kéli [Mronabéja];3073000101;Le Mroni Antanana à Kani-Kéli [Mronabéja];LIMNI;514069;8566102;41;45.12972301213967;-12.97068983971096;0;NA;NA;NA;97609;KANI-KELI;976;06;MAYOTTE;30731800;Mroni Antanana;http://id.eaufrance.fr/CEA/30731800;NA;2021-01-19T00:00:00Z;2004-02-25T00:00:00Z;NA;NA;1;16;12;NA;NA;NA;NA;NA;NA;MAYOTTE;TRUE
30740001;Le Mroni Bé à Bandrele [Bé Dapani];3074000101;Le Mroni Bé à Bandrele [Bé Dapani];LIMNI;517140;8566346;41;45.15803766166159;-12.968467767559822;0;NA;NA;NA;97603;BANDRELE;976;06;MAYOTTE;30742600;Mroni Bé;http://id.eaufrance.fr/CEA/30742600;NA;2021-01-19T00:00:00Z;1999-01-04T00:00:00Z;NA;NA;1;16;127;NA;NA;NA;NA;NA;NA;MAYOTTE;TRUE
30920001;Le Mro wa Dembéni à Dembeni [Dembéni Bas];3092000101;Le Mro wa Dembéni à Dembeni [Dembéni Bas];LIMNI;519210;8580537;41;45.177033541756806;-12.840129962821967;0;NA;NA;NA;97607;DEMBENI;976;06;MAYOTTE;30921000;Mro wa Dembéni;http://id.eaufrance.fr/CEA/30921000;NA;2021-01-19T00:00:00Z;2007-01-01T00:00:00Z;NA;NA;1;16;127;NA;NA;NA;NA;NA;NA;MAYOTTE;TRUE
30940001;Le Mro wa Salim Bé à Dembeni [Salim Bé];3094000101;Le Mro wa Salim Bé à Dembeni [Salim Bé];LIMNI;521061;8576874;41;45.194117179763225;-12.873241559258531;0;NA;NA;NA;97607;DEMBENI;976;06;MAYOTTE;30943200;Mro wa Salim Bé;http://id.eaufrance.fr/CEA/30943200;NA;2021-01-19T00:00:00Z;2016-01-01T00:00:00Z;NA;NA;1;16;127;NA;NA;NA;NA;NA;NA;MAYOTTE;TRUE
40000001;La rivière des Remparts [Bras Principal] à Saint-Joseph [Pont Rn2];4000000101;La rivière des Remparts [Bras Principal] à Saint-Joseph [Pont Rn2];LIMNI;356485;7635538;38;55.61569990271827;-21.3766186906831;0;NA;31.2;7;97412;SAINT-JOSEPH;974;04;LA REUNION;40000100;Rivière des Remparts;http://id.eaufrance.fr/CEA/40000100;NA;2020-06-23T00:00:00Z;2007-06-14T00:00:00Z;NA;NA;1;16;2;NA;NA;NA;2007-06-14T00:00:00Z;2017-06-30T00:00:00Z;2018-11-02T00:00:00Z;LA REUNION;TRUE
40000001;La rivière des Remparts [Bras Principal] à Saint-Joseph [Pont Rn2];4000000102;La rivière des Remparts [Bras Principal] à Saint-Joseph [Pont Rn2] - Canal Payet;LIMNI;356479;7635689;38;55.61565486775125;-21.375254291226764;NA;NA;30900;7;97412;SAINT-JOSEPH;974;04;LA REUNION;40000100;Rivière des Remparts;http://id.eaufrance.fr/CEA/40000100;NA;2020-12-01T00:00:00Z;2018-06-01T00:00:00Z;NA;NA;1;12;2;NA;NA;NA;2018-06-01T00:00:00Z;2020-12-01T00:00:00Z;2020-12-01T00:00:00Z;LA REUNION;TRUE
40010001;La rivière Langevin [Bras principal] à Saint-Joseph [Barrage];4001000101;La rivière Langevin [Bras principal] à Saint-Joseph [Barrage];LIMNI;359449.172;7639590.385;38;55.64462198565205;-21.34024801278974;2;NA;245.14;7;97412;SAINT-JOSEPH;974;04;LA REUNION;40010100;Rivière Langevin;http://id.eaufrance.fr/CEA/40010100;NA;2020-06-23T00:00:00Z;2003-09-05T00:00:00Z;2016-03-08T00:00:00Z;NA;1;16;27;NA;NA;NA;2003-09-05T00:00:00Z;2017-04-26T00:00:00Z;2017-05-04T00:00:00Z;LA REUNION;FALSE
40010002;La rivière Langevin [Bras principal] à Saint-Joseph [Passerelle];4001000201;La rivière Langevin [Bras principal] à Saint-Joseph [Passerelle];LIMNI;359320;7639725;38;55.64338778669707;-21.339022019700444;0;NA;246720;7;97412;SAINT-JOSEPH;974;04;LA REUNION;40010100;Rivière Langevin;http://id.eaufrance.fr/CEA/40010100;NA;2020-06-23T00:00:00Z;1986-11-26T00:00:00Z;NA;NA;1;20;125;NA;NA;NA;1986-11-26T00:00:00Z;2019-02-21T00:00:00Z;2019-02-21T00:00:00Z;LA REUNION;TRUE
40010003;La rivière Langevin [Bras principal] à Saint-Joseph;4001000301;La rivière Langevin [Bras principal] à Saint-Joseph;LIMNI;359597;7635079;38;55.6456726857835;-21.381009614795644;0;NA;NA;NA;97412;SAINT-JOSEPH;974;04;LA REUNION;40010100;Rivière Langevin;http://id.eaufrance.fr/CEA/40010100;NA;2020-06-23T00:00:00Z;1997-10-08T00:00:00Z;NA;NA;1;20;57;NA;NA;NA;NA;NA;NA;LA REUNION;TRUE
40050001;La rivière de l'Est [Bras Principal] à Sainte-Rose;4005000101;La rivière de l'Est [Bras Principal] à Sainte-Rose;LIMNI;367324;7657929;38;55.7219769627395;-21.17518855495043;3;NA;864.3;7;97419;SAINTE-ROSE;974;04;LA REUNION;40050100;Rivière de l'Est;http://id.eaufrance.fr/CEA/40050100;NA;2020-06-23T00:00:00Z;2002-10-22T00:00:00Z;NA;NA;1;16;2;NA;NA;NA;2002-10-22T00:00:00Z;2017-06-30T00:00:00Z;2017-06-30T00:00:00Z;LA REUNION;TRUE
40100001;Le bras Noir à la Plaine-des-Palmistes;4010000101;Le bras Noir à la Plaine-des-Palmistes - Bras Noir;LIMNI;353143;7661272;38;55.58569308905573;-21.143904765650845;0;NA;NA;NA;97406;PLAINE-DES-PALMISTES;974;04;LA REUNION;40101130;Bras Noir;http://id.eaufrance.fr/CEA/40101130;NA;2020-06-23T00:00:00Z;1993-07-31T00:00:00Z;NA;NA;1;20;17;NA;NA;NA;NA;NA;NA;LA REUNION;TRUE
40120001;La rivière des Marsouins [Bras principal] à Saint-Benoît [Bethléem];4012000101;La rivière des Marsouins [Bras principal] à Saint-Benoît [Bethléem];LIMNI;362813;7672695;38;55.67971295648028;-21.04147154013941;0;Station initialement installée par l'office de l'eau de la Réunion et actuellement en co-gestion  avec la DEAL réunion;58.42;7;97410;SAINT-BENOIT;974;04;LA REUNION;40120100;Rivière des Marsouins;http://id.eaufrance.fr/CEA/40120100;NA;2020-06-23T00:00:00Z;1994-08-11T00:00:00Z;NA;NA;1;20;1256;NA;NA;NA;1994-08-11T00:00:00Z;2017-05-03T00:00:00Z;2017-05-03T00:00:00Z;LA REUNION;TRUE
40120002;La rivière des Marsouins [Bras Principal] à Saint-Benoît [Centre-Ville];4012000201;La rivière des Marsouins [Bras Principal] à Saint-Benoît [Centre-Ville];LIMNI;366421;7673438;38;55.71448722832754;-21.03502593690453;0;Initialement échelle calée à 0.89mNGR, puis à 1.69mNGR à partir du 22/08/2012, mais l'ensemble des données rentré dans hydro depuis 2007 a été recalé à 1.69mNGR.;1.69;7;97410;SAINT-BENOIT;974;04;LA REUNION;40120100;Rivière des Marsouins;http://id.eaufrance.fr/CEA/40120100;NA;2020-06-23T00:00:00Z;2006-08-27T00:00:00Z;NA;Influence en cas de fortes houles;1;16;2;NA;NA;NA;2006-08-27T00:00:00Z;2017-05-04T00:00:00Z;2017-05-04T00:00:00Z;LA REUNION;TRUE
40130001;La rivière des Roches [Bras Principal] à Saint-Benoît [Abondance];4013000101;La rivière des Roches [Bras Principal] à Saint-Benoît [Abondance];LIMNI;360752;7673350;38;55.65993490039222;-21.03539962753046;0;NA;NA;NA;97410;SAINT-BENOIT;974;04;LA REUNION;40130130;Rivière des Roches;http://id.eaufrance.fr/CEA/40130130;NA;2020-06-23T00:00:00Z;1978-03-16T00:00:00Z;NA;NA;1;20;7;NA;NA;NA;NA;NA;NA;LA REUNION;TRUE
40130002;La rivière des Roches [Bras Principal] à Saint-Benoît [Bassin La Paix];4013000201;La rivière des Roches [Bras Principal] à Saint-Benoît [Bassin La Paix];LIMNI;361845;7674655;38;55.67055589860559;-21.02369391530057;0;NA;56.59;7;97410;SAINT-BENOIT;974;04;LA REUNION;40130130;Rivière des Roches;http://id.eaufrance.fr/CEA/40130130;NA;2020-06-23T00:00:00Z;2011-07-05T00:00:00Z;NA;NA;1;16;2;NA;NA;NA;2011-07-05T00:00:00Z;2017-05-05T00:00:00Z;2019-03-19T00:00:00Z;LA REUNION;TRUE
40130004;La rivière Bras Panon à Bras-Panon [Aval radier Paniandy];4013000401;La rivière Bras Panon à Bras-Panon [Aval radier Paniandy] - Aval radier Paniandy;LIMNI;361042;7677627;38;55.66306959447432;-20.996786781225374;0;NA;NA;NA;97402;BRAS-PANON;974;04;LA REUNION;40131130;Rivière Bras Panon;http://id.eaufrance.fr/CEA/40131130;NA;2020-06-23T00:00:00Z;1997-06-03T00:00:00Z;NA;NA;1;20;7;NA;NA;NA;NA;NA;NA;LA REUNION;TRUE
40130005;La rivière Bras Panon à Bras-Panon [Libéria];4013000501;La rivière Bras Panon à Bras-Panon [Libéria];LIMNI;362309;7676892;38;55.6751984734575;-21.00352147085781;0;NA;NA;NA;97402;BRAS-PANON;974;04;LA REUNION;40131130;Rivière Bras Panon;http://id.eaufrance.fr/CEA/40131130;NA;2020-06-23T00:00:00Z;2019-09-27T00:00:00Z;NA;NA;1;16;2;NA;NA;NA;NA;NA;NA;LA REUNION;TRUE
40200001;La rivière du Mât [Bras Principal] à Salazie [Pont de l'Escalier];4020000101;La rivière du Mât [Bras Principal] à Salazie [Pont de l'Escalier];LIMNI;352356;7677316;38;55.57949287651046;-20.998919378927248;0;Station initialement Office de l'Eau, et actuellement en co-gestion avec la DEAL réunion;239.58;7;97421;SALAZIE;974;04;LA REUNION;402-0100;Rivière du Mât;http://id.eaufrance.fr/CEA/402-0100;NA;2020-06-23T00:00:00Z;1986-02-07T00:00:00Z;NA;Lit à fond mobile;1;20;1256;NA;NA;NA;1986-02-07T00:00:00Z;2017-05-05T00:00:00Z;2019-02-21T00:00:00Z;LA REUNION;TRUE
40200002;La rivière du Mât [Bras Principal] à Salazie [Trou Blanc];4020000201;La rivière du Mât [Bras Principal] à Salazie [Trou Blanc];LIMNI;343504.133;7670325.948;38;55.49371476653815;-21.061325082882764;0;NA;NA;NA;97421;SALAZIE;974;04;LA REUNION;402-0100;Rivière du Mât;http://id.eaufrance.fr/CEA/402-0100;NA;2021-01-19T00:00:00Z;2015-12-14T00:00:00Z;NA;NA;1;16;0;NA;NA;NA;NA;NA;NA;LA REUNION;TRUE
40210001;Le bras des Lianes à Bras-Panon [Amont cascade du Chien];4021000101;Le bras des Lianes à Bras-Panon [Amont cascade du Chien];LIMNI;355709;7674349;38;55.61149735002474;-21.02598628476002;0;NA;NA;NA;97402;BRAS-PANON;974;04;LA REUNION;40211090;Bras des Lianes;http://id.eaufrance.fr/CEA/40211090;NA;2020-06-23T00:00:00Z;1976-03-24T00:00:00Z;NA;NA;1;20;157;NA;NA;NA;NA;NA;NA;LA REUNION;TRUE
40220001;La rivière du Mât [Bras principal] à Bras-Panon [Barrage Bengalis];4022000101;La rivière du Mât [Bras principal] à Bras-Panon [Barrage Bengalis];LIMNI;358653;7679658;38;55.64025569877992;-20.97825853325807;0;NA;113.88;7;97402;BRAS-PANON;974;04;LA REUNION;402-0100;Rivière du Mât;http://id.eaufrance.fr/CEA/402-0100;NA;2020-06-23T00:00:00Z;1999-07-20T00:00:00Z;NA;NA;1;16;27;NA;NA;NA;2010-06-01T00:00:00Z;2017-06-13T00:00:00Z;2019-02-21T00:00:00Z;LA REUNION;TRUE
40300001;La Grande Rivière Saint-Jean [Bras principal] à Sainte-Suzanne [Pont Rn2002];4030000101;La Grande Rivière Saint-Jean [Bras principal] à Sainte-Suzanne [Pont Rn2002];LIMNI;358783;7684741;38;55.64192052508873;-20.932353036537684;0;NA;12.44;7;97420;SAINTE-SUZANNE;974;04;LA REUNION;40300100;Grande Rivière Saint-Jean;http://id.eaufrance.fr/CEA/40300100;NA;2020-06-23T00:00:00Z;2008-07-10T00:00:00Z;NA;NA;1;16;27;NA;NA;NA;2008-07-10T00:00:00Z;2017-06-13T00:00:00Z;2017-06-13T00:00:00Z;LA REUNION;TRUE
40300002;La Grande Rivière Saint-Jean [Bras principal] à Saint-André [Grand Bras];4030000201;La Grande Rivière Saint-Jean [Bras principal] à Saint-André [Grand Bras];LIMNI;355048;7680646;38;55.605666402439795;-20.969053683668665;0;NA;316.45;7;97409;SAINT-ANDRE;974;04;LA REUNION;40300100;Grande Rivière Saint-Jean;http://id.eaufrance.fr/CEA/40300100;NA;2020-06-23T00:00:00Z;1982-02-01T00:00:00Z;NA;NA;1;20;12567;NA;NA;NA;2013-06-01T00:00:00Z;2017-06-13T00:00:00Z;2017-06-13T00:00:00Z;LA REUNION;TRUE
40300003;La Petite Rivière Saint-Jean [Affluent] à Sainte-Suzanne [Cascade Délice];4030000301;La Petite Rivière Saint-Jean [Affluent] à Sainte-Suzanne [Cascade Délice];LIMNI;357945;7684308;38;55.63382775479661;-20.936200079571183;0;NA;21.67;7;97420;SAINTE-SUZANNE;974;04;LA REUNION;40301090;Petite Rivière Saint-Jean;http://id.eaufrance.fr/CEA/40301090;NA;2020-09-18T00:00:00Z;2010-06-01T00:00:00Z;NA;NA;1;20;12567;NA;NA;NA;2010-06-01T00:00:00Z;2017-06-13T00:00:00Z;2019-05-15T00:00:00Z;LA REUNION;TRUE
40300004;La rivière Sainte-Suzanne [Bras principal] à Sainte-Suzanne [Amont Cascade Niagara];4030000401;La rivière Sainte-Suzanne [Bras principal] à Sainte-Suzanne [Amont Cascade Niagara];LIMNI;354663;7685911;38;55.60240541862;-20.92146458424841;0;NA;56.3;7;97420;SAINTE-SUZANNE;974;04;LA REUNION;40300110;Rivière Sainte-Suzanne;http://id.eaufrance.fr/CEA/40300110;NA;2020-09-18T00:00:00Z;2010-06-01T00:00:00Z;NA;NA;1;20;24567;NA;NA;NA;2010-06-01T00:00:00Z;2017-06-13T00:00:00Z;2020-09-18T00:00:00Z;LA REUNION;TRUE
40300005;La rivière Sainte-Suzanne [Bras principal] à Sainte-Suzanne [Bassin ravine Creuse];4030000501;La rivière Sainte-Suzanne [Bras principal] à Sainte-Suzanne [Bassin ravine Creuse];LIMNI;352182.44;7681532.91;38;55.57818388103717;-20.96081462644953;0;NA;NA;NA;97420;SAINTE-SUZANNE;974;04;LA REUNION;40300110;Rivière Sainte-Suzanne;http://id.eaufrance.fr/CEA/40300110;NA;2021-01-19T00:00:00Z;2017-12-19T00:00:00Z;NA;NA;1;16;2;NA;NA;NA;NA;NA;NA;LA REUNION;TRUE
40300006;Le bras Laurent [Affluent] à Sainte-Suzanne;4030000601;Le bras Laurent [Affluent] à Sainte-Suzanne;LIMNI;351200;7679938;38;55.56859913911218;-20.97514215083058;0;NA;679.16;7;97420;SAINTE-SUZANNE;974;04;LA REUNION;40301190;Bras Laurent;http://id.eaufrance.fr/CEA/40301190;NA;2020-06-23T00:00:00Z;1992-10-27T00:00:00Z;NA;NA;1;20;24567;NA;NA;NA;1992-10-27T00:00:00Z;2017-06-13T00:00:00Z;2017-06-13T00:00:00Z;LA REUNION;TRUE
40300007;La rivière Sainte-Suzanne à Sainte-Suzanne [Bassin Grondin];4030000701;La rivière Sainte-Suzanne à Sainte-Suzanne [Bassin Grondin];LIMNI;352615;7682599;38;55.582434328671816;-20.951219367587356;1;NA;NA;NA;97420;SAINTE-SUZANNE;974;04;LA REUNION;40300110;Rivière Sainte-Suzanne;http://id.eaufrance.fr/CEA/40300110;NA;2020-06-23T00:00:00Z;2018-10-01T00:00:00Z;NA;NA;1;16;2;NA;NA;NA;NA;NA;NA;LA REUNION;TRUE
40300008;La rivière Sainte-Suzanne à Sainte-Suzanne;4030000801;La rivière Sainte-Suzanne à Sainte-Suzanne;LIMNI;350745;7679903;38;55.56422022430821;-20.975421481077163;0;NA;NA;NA;97420;SAINTE-SUZANNE;974;04;LA REUNION;40300110;Rivière Sainte-Suzanne;http://id.eaufrance.fr/CEA/40300110;NA;2020-06-23T00:00:00Z;2011-04-08T00:00:00Z;NA;NA;1;20;7;NA;NA;NA;NA;NA;NA;LA REUNION;TRUE
40300009;La Grande Rivière Saint-Jean à Saint-André;4030000901;La Grande Rivière Saint-Jean à Saint-André;LIMNI;358390;7682960;38;55.63799634988151;-20.948410959788863;0;NA;NA;NA;97409;SAINT-ANDRE;974;04;LA REUNION;40300100;Grande Rivière Saint-Jean;http://id.eaufrance.fr/CEA/40300100;NA;2020-06-23T00:00:00Z;2009-04-01T00:00:00Z;NA;NA;1;20;157;NA;NA;NA;NA;NA;NA;LA REUNION;TRUE
40300010;La rivière Sainte-Suzanne [Bras Principal] à Sainte-Suzanne [En aval du bassin Ravine Creuse];4030001001;La rivière Sainte-Suzanne [Bras Principal] à Sainte-Suzanne [En aval du bassin Ravine Creuse];LIMNI;352204;7681550;38;55.57839267148747;-20.96066198333573;NA;NA;474375;7;97420;SAINTE-SUZANNE;974;04;LA REUNION;40300110;Rivière Sainte-Suzanne;http://id.eaufrance.fr/CEA/40300110;NA;2020-12-02T00:00:00Z;2018-01-01T00:00:00Z;NA;NA;1;12;2;NA;NA;NA;2018-01-01T00:00:00Z;2020-12-02T00:00:00Z;2020-12-02T00:00:00Z;LA REUNION;TRUE
40310001;La rivière des Pluies [Bras Principal] à Saint-Denis [Pont Desbassyns];4031000101;La rivière des Pluies [Bras Principal] à Saint-Denis [Pont Desbassyns];LIMNI;345009;7686383;38;55.509635426736594;-20.916416225466772;0;NA;89.48;7;97411;SAINT-DENIS;974;04;LA REUNION;40310170;Rivière des Pluies;http://id.eaufrance.fr/CEA/40310170;NA;2020-06-23T00:00:00Z;2006-08-27T00:00:00Z;NA;NA;1;16;2;NA;NA;NA;2006-08-27T00:00:00Z;2017-06-30T00:00:00Z;2017-06-30T00:00:00Z;LA REUNION;TRUE
40310002;La rivière des Pluies [Bras Principal] à Saint-Denis [Piton Tanan];4031000201;La rivière des Pluies [Bras Principal] à Saint-Denis [Piton Tanan];LIMNI;363646;7680492;38;55.68834393019992;-20.971101281025337;0;NA;373.88;7;97411;SAINT-DENIS;974;04;LA REUNION;40310170;Rivière des Pluies;http://id.eaufrance.fr/CEA/40310170;NA;2020-06-23T00:00:00Z;2012-10-04T00:00:00Z;NA;NA;1;20;257;NA;NA;NA;2012-10-04T00:00:00Z;2017-06-30T00:00:00Z;2017-06-30T00:00:00Z;LA REUNION;TRUE
40310006;La ravine Mère Canal à Sainte-Marie;4031000601;La ravine Mère Canal à Sainte-Marie;LIMNI;345980;7679880;38;55.5183919782596;-20.97523689573486;0;NA;NA;NA;97418;SAINTE-MARIE;974;04;LA REUNION;40311280;Ravine Mère Canal;http://id.eaufrance.fr/CEA/40311280;NA;2020-06-23T00:00:00Z;2005-12-30T00:00:00Z;NA;NA;1;20;7;NA;NA;NA;NA;NA;NA;LA REUNION;TRUE
40320001;La ravine des Patates à Durand [Bras principal] à Saint-Denis;4032000101;La ravine des Patates à Durand [Bras principal] à Saint-Denis;LIMNI;341163;7688901;38;55.47289306783932;-20.89334565437788;0;NA;41.21;7;97411;SAINT-DENIS;974;04;LA REUNION;40320100;Ravine des Patates à Durand;http://id.eaufrance.fr/CEA/40320100;NA;2020-06-23T00:00:00Z;2007-02-01T00:00:00Z;NA;NA;1;16;2;NA;NA;NA;2007-02-01T00:00:00Z;2017-06-13T00:00:00Z;2019-11-21T00:00:00Z;LA REUNION;TRUE
40320002;La ravine du Butor [Bras principal] à Saint-Denis;4032000201;La ravine du Butor [Bras principal] à Saint-Denis;LIMNI;340301;7689480;38;55.46466096941117;-20.888041607901677;4;NA;5.26;7;97411;SAINT-DENIS;974;04;LA REUNION;40320110;Ravine du Butor;http://id.eaufrance.fr/CEA/40320110;NA;2020-06-23T00:00:00Z;2005-11-26T00:00:00Z;NA;Par Fortes Houles;1;16;2;NA;NA;NA;2005-11-26T00:00:00Z;2017-06-13T00:00:00Z;2017-06-13T00:00:00Z;LA REUNION;TRUE
40320003;La rivière Saint-Denis [Bras principal] à Saint-Denis [Seuil Bourbon];4032000301;La rivière Saint-Denis [Bras principal] à Saint-Denis [Seuil Bourbon];LIMNI;338285;7689968;38;55.44532997079919;-20.88345866719554;0;NA;14.25;7;97411;SAINT-DENIS;974;04;LA REUNION;40320120;Rivière Saint-Denis;http://id.eaufrance.fr/CEA/40320120;NA;2020-06-23T00:00:00Z;2002-10-22T00:00:00Z;NA;NA;1;16;2;NA;NA;NA;2002-10-22T00:00:00Z;2017-06-13T00:00:00Z;2017-06-13T00:00:00Z;LA REUNION;TRUE
40320004;La rivière Saint-Denis [Bras principal] à Saint-Denis [Amont prise d'eau Bellepierre];4032000401;La rivière Saint-Denis [Bras principal] à Saint-Denis [Amont prise d'eau Bellepierre];LIMNI;337066;7687236;38;55.43335810185674;-20.9080281612688;0;NA;75.81;7;97411;SAINT-DENIS;974;04;LA REUNION;40320120;Rivière Saint-Denis;http://id.eaufrance.fr/CEA/40320120;NA;2020-06-23T00:00:00Z;1999-11-04T00:00:00Z;NA;NA;1;20;24567;NA;NA;NA;1999-11-04T00:00:00Z;2017-06-13T00:00:00Z;2017-06-13T00:00:00Z;LA REUNION;TRUE
40400001;La rivière des Galets [Bras Principal] à la Possession et à Saint-Paul;4040000101;La rivière des Galets [Bras Principal] à Saint-Paul;LIMNI;334132;7674700;38;55.40395400893346;-21.020994404678895;0;NA;305.07;7;97415;SAINT-PAUL;974;04;LA REUNION;404-0100;Rivière des Galets;http://id.eaufrance.fr/CEA/404-0100;NA;2020-06-23T00:00:00Z;2006-12-19T00:00:00Z;NA;NA;1;16;2;NA;NA;NA;2006-12-19T00:00:00Z;2017-06-30T00:00:00Z;2019-02-27T00:00:00Z;LA REUNION;TRUE
40410001;Le bras Sainte-Suzanne [Affluent] à la Possession [Prise ILO];4041000101;Le bras Sainte-Suzanne [Affluent] à la Possession [Prise ILO];LIMNI;334326;7677817;38;55.40611929806943;-20.992858768667016;2;NA;346.32;7;97408;POSSESSION;974;04;LA REUNION;40411000;Bras Sainte-Suzanne;http://id.eaufrance.fr/CEA/40411000;NA;2020-06-23T00:00:00Z;2004-02-20T00:00:00Z;NA;Sur prise ILO;1;16;2;NA;NA;NA;2004-02-20T00:00:00Z;2017-06-30T00:00:00Z;2019-02-27T00:00:00Z;LA REUNION;TRUE
40410002;La rivière des Galets à la Possession;4041000201;La rivière des Galets à la Possession - îlet Flamand;LIMNI;332020;7677230;38;55.38388378271282;-20.99795150602694;0;NA;NA;NA;97408;POSSESSION;974;04;LA REUNION;404-0100;Rivière des Galets;http://id.eaufrance.fr/CEA/404-0100;NA;2020-06-23T00:00:00Z;2014-11-01T00:00:00Z;NA;NA;1;20;157;NA;NA;NA;NA;NA;NA;LA REUNION;TRUE
40500001;L'étang Saint-Paul [Etang] à Saint-Paul;4050000101;L'étang Saint-Paul [Etang] à Saint-Paul;LIMNI;334326;7677817;38;55.40611929806943;-20.992858768667016;0;NA;0.05;7;97415;SAINT-PAUL;974;04;LA REUNION;40500100;Étang de Saint-Paul;http://id.eaufrance.fr/CEA/40500100;NA;2020-06-23T00:00:00Z;2007-12-21T00:00:00Z;NA;NA;1;20;125678;NA;NA;NA;2007-12-21T00:00:00Z;2017-06-30T00:00:00Z;2017-06-30T00:00:00Z;LA REUNION;TRUE
40500002;La ravine Bernica [Bras Principal] à Saint-Paul;4050000201;La ravine Bernica [Bras Principal] à Saint-Paul;LIMNI;324367.66;7670462.78;38;55.30959596133759;-21.058356126034035;0;NA;834.33;0;97415;SAINT-PAUL;974;04;LA REUNION;40501160;Ravine Bernica;http://id.eaufrance.fr/CEA/40501160;NA;2020-06-23T00:00:00Z;1976-01-06T00:00:00Z;NA;NA;1;20;1256;NA;NA;NA;1976-01-06T00:00:00Z;2017-06-30T00:00:00Z;2019-02-22T00:00:00Z;LA REUNION;TRUE
40510001;La ravine Saint-Gilles [Bras principal] à Saint-Paul [Pont Rn1a];4051000101;La ravine Saint-Gilles [Bras principal] à Saint-Paul [Pont Rn1a];LIMNI;316050;7671040;38;55.22963110773644;-21.05232766399406;4;NA;1.89;7;97415;SAINT-PAUL;974;04;LA REUNION;40510140;Ravine Saint-Gilles;http://id.eaufrance.fr/CEA/40510140;NA;2020-06-23T00:00:00Z;2006-08-27T00:00:00Z;NA;Influence du cordon dunaire en période de fortes Houles;1;16;2;NA;NA;NA;2006-08-27T00:00:00Z;2017-06-14T00:00:00Z;2019-02-22T00:00:00Z;LA REUNION;TRUE
40510003;La ravine Saint-Gilles [Bras Principal] à Saint-Paul [Le Verrou];4051000301;La ravine Saint-Gilles [Bras Principal] à Saint-Paul [Le Verrou];LIMNI;316939;7671444;38;55.238226884823646;-21.048767947052237;0;NA;30880000;0;97415;SAINT-PAUL;974;04;LA REUNION;40510140;Ravine Saint-Gilles;http://id.eaufrance.fr/CEA/40510140;NA;2020-08-05T00:00:00Z;1988-11-18T00:00:00Z;NA;NA;1;20;157;NA;NA;NA;1988-11-18T00:00:00Z;2019-02-22T00:00:00Z;2019-03-27T00:00:00Z;LA REUNION;TRUE
40510003;La ravine Saint-Gilles [Bras Principal] à Saint-Paul [Le Verrou];4051000302;La ravine Saint-Gilles [Bras Principal] à Saint-Paul [Le Verrou] - Verrou;LIMNI;316939;7671444;38;55.238226884823646;-21.048767947052237;0;NA;NA;NA;97415;SAINT-PAUL;974;04;LA REUNION;40510140;Ravine Saint-Gilles;http://id.eaufrance.fr/CEA/40510140;NA;2020-06-23T00:00:00Z;1988-11-18T00:00:00Z;NA;NA;1;20;17;NA;NA;NA;NA;NA;NA;LA REUNION;TRUE
40510004;La ravine du Grand Étang [Bras Principal] à Saint-Leu [Pont du Centre-Ville];4051000401;La ravine du Grand Étang [Bras Principal] à Saint-Leu [Pont du Centre-Ville];LIMNI;322248;7658234;38;55.28793495228907;-21.16859584262284;0;échelle limnimètrique;NA;NA;97413;SAINT-LEU;974;04;LA REUNION;40510240;Ravine du Grand Étang;http://id.eaufrance.fr/CEA/40510240;NA;2020-06-23T00:00:00Z;1900-01-01T00:00:00Z;NA;NA;1;16;NA;NA;NA;NA;NA;NA;NA;LA REUNION;TRUE
40510005;La ravine du Grand Étang [Bras Principal] à Saint-Leu [Pont de la Rn1A];4051000501;La ravine du Grand Étang [Bras Principal] à Saint-Leu [Pont de la Rn1A];LIMNI;322489;7658268;38;55.29025895287997;-21.16831225160195;2;Site juste équipé d'une échelle limnimètrique;NA;NA;97413;SAINT-LEU;974;04;LA REUNION;40510240;Ravine du Grand Étang;http://id.eaufrance.fr/CEA/40510240;NA;2020-06-23T00:00:00Z;1900-01-01T00:00:00Z;NA;NA;1;16;NA;NA;NA;NA;NA;NA;NA;LA REUNION;TRUE
40510006;La ravine du Petit Étang [Bras Principal] à Saint-Leu [Pont du Centre-Ville];4051000601;La ravine du Petit Étang [Bras Principal] à Saint-Leu [Pont du Centre-Ville];LIMNI;322264;7658103;38;55.28807539462854;-21.169780517680447;3;Site seulement équipé d'une échelle limnimétrique;NA;NA;97413;SAINT-LEU;974;04;LA REUNION;40511370;Ravine du Petit Étang;http://id.eaufrance.fr/CEA/40511370;NA;2020-06-23T00:00:00Z;1900-01-01T00:00:00Z;NA;Houle;1;16;NA;NA;NA;NA;NA;NA;NA;LA REUNION;TRUE
40610001;Le bras de Sainte-Suzanne au Tampon;4061000101;Le bras de Sainte-Suzanne au Tampon;LIMNI;347874;7657090;38;55.534590443776274;-21.181247256374984;0;NA;NA;NA;97422;TAMPON;974;04;LA REUNION;40611010;Bras de Sainte-Suzanne;http://id.eaufrance.fr/CEA/40611010;NA;2020-06-23T00:00:00Z;2009-08-10T00:00:00Z;NA;NA;1;20;17;NA;NA;NA;NA;NA;NA;LA REUNION;TRUE
40620001;La ravine des Cabris [Bras Principal] à Saint-Pierre [Pont de la Rn1];4062000101;La ravine des Cabris [Bras Principal] à Saint-Pierre [Pont de la Rn1];LIMNI;338501;7642005;38;55.44289490563423;-21.316688854190343;0;Hors Service;30.66;7;97416;SAINT-PIERRE;974;04;LA REUNION;40620100;Ravine des Cabris;http://id.eaufrance.fr/CEA/40620100;NA;2020-06-23T00:00:00Z;2005-11-26T00:00:00Z;2016-05-01T00:00:00Z;NA;1;16;2;NA;NA;NA;2005-11-26T00:00:00Z;2017-06-30T00:00:00Z;2019-02-22T00:00:00Z;LA REUNION;FALSE
40620002;La ravine des Cabris [Bras Principal] à Saint-Pierre [Pont de la Rn3];4062000201;La ravine des Cabris [Bras Principal] à Saint-Pierre [Pont de la Rn3];LIMNI;344169;7646398;38;55.49793215727591;-21.2775073670326;0;NA;NA;NA;97416;SAINT-PIERRE;974;04;LA REUNION;40620100;Ravine des Cabris;http://id.eaufrance.fr/CEA/40620100;NA;2020-06-23T00:00:00Z;2016-09-19T00:00:00Z;NA;NA;1;16;2;NA;NA;NA;NA;NA;NA;LA REUNION;TRUE
40620003;La ravine Blanche [Bras Principal] à Saint-Pierre [Abattoir ZI n°1];4062000301;La ravine Blanche [Bras Principal] à Saint-Pierre [Abattoir ZI n°1];LIMNI;340168;7640172;38;55.45879010910249;-21.333392556934964;0;NA;10.19;7;97416;SAINT-PIERRE;974;04;LA REUNION;40620110;Ravine Blanche;http://id.eaufrance.fr/CEA/40620110;NA;2020-06-23T00:00:00Z;2007-06-14T00:00:00Z;NA;NA;1;16;2;NA;NA;NA;2007-06-14T00:00:00Z;2017-06-30T00:00:00Z;2019-02-22T00:00:00Z;LA REUNION;TRUE
40620004;La ravine Blanche [Bras Principal] à Saint-Pierre [Pont de la Rd3];4062000401;La ravine Blanche [Bras Principal] à Saint-Pierre [Pont de la Rd3];LIMNI;345798;7646553;38;55.513644261261454;-21.27624663813167;0;mauvais signal - suppression de la station;NA;NA;97416;SAINT-PIERRE;974;04;LA REUNION;40620110;Ravine Blanche;http://id.eaufrance.fr/CEA/40620110;NA;2020-06-23T00:00:00Z;2017-01-25T00:00:00Z;2019-01-01T00:00:00Z;NA;1;16;2;NA;NA;NA;NA;NA;NA;LA REUNION;FALSE
40620005;La ravine Blanche [Bras Principal] au Tampon [Plaine des Cafres];4062000501;La ravine Blanche [Bras Principal] au Tampon [Plaine des Cafres];LIMNI;353998;7653408;38;55.593253499193565;-21.215006669213786;0;NA;1603520000;7;97422;TAMPON;974;04;LA REUNION;40620110;Ravine Blanche;http://id.eaufrance.fr/CEA/40620110;NA;2020-06-23T00:00:00Z;1979-03-14T00:00:00Z;NA;NA;1;16;0;NA;NA;NA;1979-03-14T00:00:00Z;2019-02-22T00:00:00Z;2019-02-22T00:00:00Z;LA REUNION;TRUE
40620006;La ravine Blanche [Bras Principal] à Saint-Pierre [La Chatoire];4062000601;La ravine Blanche [Bras Principal] à Saint-Pierre [La Chatoire];LIMNI;344767;7645676;38;55.50362887123148;-21.284079951348897;0;NA;NA;NA;97416;SAINT-PIERRE;974;04;LA REUNION;40620110;Ravine Blanche;http://id.eaufrance.fr/CEA/40620110;NA;2020-06-23T00:00:00Z;1997-12-10T00:00:00Z;2007-03-01T00:00:00Z;NA;1;16;0;NA;NA;NA;NA;NA;NA;LA REUNION;FALSE
40620007;La ravine Blanche [Bras principal] au Tampon [Pont de la Rn3];4062000701;La ravine Blanche [Bras principal] au Tampon [Pont de la Rn3];LIMNI;346953;7647700;38;55.524877780118814;-21.265984390947807;0;NA;NA;NA;97422;TAMPON;974;04;LA REUNION;40620110;Ravine Blanche;http://id.eaufrance.fr/CEA/40620110;NA;2020-06-23T00:00:00Z;2019-06-18T00:00:00Z;NA;NA;1;16;2;NA;NA;NA;NA;NA;NA;LA REUNION;TRUE
50410001;Le Maroni à Apatou [Langa Tabiki];5041000101;Le Maroni à Apatou [Langa Tabiki];LIMNI;118756;552143;40;-54.4370262956598;4.986284467125487;1;NA;NA;NA;97360;APATOU;973;03;GUYANE;5---0000;"maroni, le (fleuve); lawa, la (rivière); alitanie, l' (rivière)";http://id.eaufrance.fr/CEA/5---0000;NA;2020-06-23T00:00:00Z;1951-11-27T00:00:00Z;NA;NA;1;20;127;1;2;RIC023,RIC072,RIC122,RIC322;NA;NA;NA;GUYANE;TRUE
50610001;Le Maroni à Saint-Laurent-du-Maroni;5061000101;Le Maroni à Saint-Laurent-du-Maroni - Au port;LIMNI;163536;608077;40;-54.03617071479455;5.493567717737193;3;NA;NA;NA;97311;SAINT-LAURENT-DU-MARONI;973;03;GUYANE;5---0000;"maroni, le (fleuve); lawa, la (rivière); alitanie, l' (rivière)";http://id.eaufrance.fr/CEA/5---0000;NA;2020-07-20T00:00:00Z;2018-09-20T00:00:00Z;NA;Influence de la marée et remontée saline en saison sèche;1;20;127;NA;NA;RIC023,RIC172,RIC322;NA;NA;NA;GUYANE;TRUE
50630001;"La crique Balaté (Branche Ouest); crique Balaté à Saint-Laurent-du-Maroni [Balaté]";5063000101;"La crique Balaté (Branche Ouest); crique Balaté à Saint-Laurent-du-Maroni [Balaté]";LIMNI;163773;604948;40;-54.03389134885642;5.465312071875111;0;NA;NA;NA;97311;SAINT-LAURENT-DU-MARONI;973;03;GUYANE;50630500;"balaté, branche ouest (crique); balaté (crique)";http://id.eaufrance.fr/CEA/50630500;NA;2020-06-23T00:00:00Z;1989-09-06T00:00:00Z;1992-12-08T00:00:00Z;NA;1;20;0;1;2;NA;NA;NA;NA;GUYANE;FALSE
51430001;"La Tapanahoni; Tapanahoni supérieure à Grand-Santi [Kio Konde]";5143000101;"La Tapanahoni; Tapanahoni supérieure à Grand-Santi [Kio Konde]";LIMNI;104571.7079135;465897.205825;40;-54.560865405360154;4.206879105038537;1;NA;NA;NA;97357;GRAND-SANTI;973;03;GUYANE;5---0010;"tapanahoni, la (rivière); tapanahoni supérieure, la (rivière)";http://id.eaufrance.fr/CEA/5---0010;NA;2021-10-26T00:00:00Z;2021-10-19T00:00:00Z;NA;NA;1;20;127;NA;NA;NA;NA;NA;NA;GUYANE;TRUE
52200001;Le Maroni [Lawa] à Maripasoula [Taluen];5220000101;Le Maroni [Lawa] à Maripasoula [Taluen];LIMNI;160803;374619;40;-54.05212384198533;3.3844272615739546;1;NA;NA;NA;97353;MARIPASOULA;973;03;GUYANE;5---0000;"maroni, le (fleuve); lawa, la (rivière); alitanie, l' (rivière)";http://id.eaufrance.fr/CEA/5---0000;NA;2020-06-23T00:00:00Z;2013-10-16T00:00:00Z;NA;NA;1;20;27;NA;NA;RIC072,RIC322;NA;NA;NA;GUYANE;TRUE
52210001;Le Maroni [Le Lawa] à Maripasoula;5221000101;Le Maroni [Le Lawa] à Maripasoula;LIMNI;163974;403738;40;-54.024466036498225;3.6475864943994263;1;NA;NA;NA;97353;MARIPASOULA;973;03;GUYANE;5---0000;"maroni, le (fleuve); lawa, la (rivière); alitanie, l' (rivière)";http://id.eaufrance.fr/CEA/5---0000;NA;2020-06-23T00:00:00Z;1953-08-07T00:00:00Z;NA;NA;1;20;27;1;2;RIC023,RIC072,RIC122,RIC322;NA;NA;NA;GUYANE;TRUE
52210002;Le Maroni [Lawa] à Papaichton;5221000201;Le Maroni [Lawa] à Papaichton;LIMNI;150899;421257;40;-54.14259512623251;3.805435012483432;1;NA;NA;NA;97362;PAPAICHTON;973;03;GUYANE;5---0000;"maroni, le (fleuve); lawa, la (rivière); alitanie, l' (rivière)";http://id.eaufrance.fr/CEA/5---0000;NA;2021-09-22T00:00:00Z;2016-02-23T00:00:00Z;NA;NA;1;20;27;NA;NA;RIC023,RIC072,RIC122,RIC322;NA;NA;NA;GUYANE;TRUE
52410001;Le Maroni [Le Lawa] à Grand-Santi;5241000101;Le Maroni [Le Lawa] à Grand-Santi;LIMNI;124522;472968;40;-54.38170587300511;4.2715368888026175;1;NA;NA;NA;97357;GRAND-SANTI;973;03;GUYANE;5---0000;"maroni, le (fleuve); lawa, la (rivière); alitanie, l' (rivière)";http://id.eaufrance.fr/CEA/5---0000;NA;2020-06-23T00:00:00Z;1953-08-01T00:00:00Z;NA;NA;1;20;27;1;2;RIC023,RIC072,RIC122,RIC322;NA;NA;NA;GUYANE;TRUE
54230001;Le Maroni [La Litani] à Maripasoula [Kalewat];5423000101;Le Maroni [La Litani] à Maripasoula [Kalewat];LIMNI;145442;354243;40;-54.1896161875916;3.1999261677689765;1;NA;NA;NA;97353;MARIPASOULA;973;03;GUYANE;5---0000;"maroni, le (fleuve); lawa, la (rivière); alitanie, l' (rivière)";http://id.eaufrance.fr/CEA/5---0000;NA;2020-06-23T00:00:00Z;1972-12-14T00:00:00Z;1978-07-09T00:00:00Z;NA;1;20;2;1;2;NA;NA;NA;NA;GUYANE;FALSE
54240001;Le Maroni [La Litani] à Maripasoula;5424000101;Le Maroni [La Litani] à Maripasoula;LIMNI;153268;363024;40;-54.1195273236926;3.2794670726221895;1;NA;NA;NA;97353;MARIPASOULA;973;03;GUYANE;5---0000;"maroni, le (fleuve); lawa, la (rivière); alitanie, l' (rivière)";http://id.eaufrance.fr/CEA/5---0000;NA;2020-06-23T00:00:00Z;1973-12-10T00:00:00Z;1977-09-06T00:00:00Z;NA;1;20;2;1;2;NA;NA;NA;NA;GUYANE;FALSE
54240001;Le Maroni [La Litani] à Maripasoula;5424000102;Le Maroni [La Litani] à Maripasoula;LIMNI;158580;364759;40;-54.07183017244874;3.295289409288488;1;NA;NA;NA;97353;MARIPASOULA;973;03;GUYANE;5---0000;"maroni, le (fleuve); lawa, la (rivière); alitanie, l' (rivière)";http://id.eaufrance.fr/CEA/5---0000;NA;2020-06-23T00:00:00Z;1968-11-13T00:00:00Z;2006-08-08T00:00:00Z;NA;1;20;2;1;2;NA;NA;NA;NA;GUYANE;FALSE
54710001;La Malani à Maripasoula [Aloupata];5471000101;La Malani à Maripasoula [Aloupata];LIMNI;156682;357053;40;-54.08867765625337;3.2256219945321485;1;NA;NA;NA;97353;MARIPASOULA;973;03;GUYANE;54--0210;"malani ouest (crique); malani (rivière)";http://id.eaufrance.fr/CEA/54--0210;NA;2020-06-23T00:00:00Z;1972-12-12T00:00:00Z;1978-06-04T00:00:00Z;NA;1;20;2;1;2;NA;NA;NA;NA;GUYANE;FALSE
55220001;La Tampok à Maripasoula [Degrad Roche];5522000101;La Tampok à Maripasoula [Degrad Roche];LIMNI;185196;376914;40;-53.832881667784726;3.405833417293962;1;NA;NA;NA;97353;MARIPASOULA;973;03;GUYANE;55--0200;tampok (rivière);http://id.eaufrance.fr/CEA/55--0200;NA;2020-07-20T00:00:00Z;1951-03-01T00:00:00Z;NA;NA;1;20;27;1;2;RIC072,RIC322;NA;NA;NA;GUYANE;TRUE
55220001;La Tampok à Maripasoula [Degrad Roche];5522000102;La Tampok à Maripasoula [Degrad Roche] - Cayode;LIMNI;174371;375550;40;-53.93017289149189;3.39321708857569;1;NA;NA;NA;97353;MARIPASOULA;973;03;GUYANE;55--0200;tampok (rivière);http://id.eaufrance.fr/CEA/55--0200;NA;2020-07-20T00:00:00Z;2004-02-19T00:00:00Z;2006-02-06T00:00:00Z;NA;1;20;2;1;2;NA;NA;NA;NA;GUYANE;FALSE
60000001;L'Oyapock à Camopi;6000000101;L'Oyapock à Camopi;LIMNI;352550;350665;40;-52.326996469962864;3.1716889012536646;1;NA;NA;NA;97356;CAMOPI;973;03;GUYANE;6---0000;"oyapock, l' (fleuve); kérindioutou (rivière)";http://id.eaufrance.fr/CEA/6---0000;NA;2020-06-23T00:00:00Z;1961-07-20T00:00:00Z;1970-01-01T00:00:00Z;NA;1;20;2;1;2;NA;NA;NA;NA;GUYANE;FALSE
60000001;L'Oyapock à Camopi;6000000102;L'Oyapock à Camopi - Mokata;LIMNI;353040.44;350662.04;40;-52.322583446916205;3.171667804985527;1;NA;NA;NA;97356;CAMOPI;973;03;GUYANE;6---0000;"oyapock, l' (fleuve); kérindioutou (rivière)";http://id.eaufrance.fr/CEA/6---0000;Station placée au camp Mokata juste en aval de la confluence de la Camopi et de l'Oyapock. L'ancienne station était placée sur la pointe de la confluence, il faudra attendre quelques année avant de pouvoir comparer les débits de deux stations, le temps de consolider la nouvelle courbe de tarage.;2021-06-28T00:00:00Z;2020-05-07T00:00:00Z;NA;NA;1;20;27;NA;NA;NA;NA;NA;NA;GUYANE;TRUE
60200001;L'Oyapock à Saint-Georges [Saut Maripa];6020000101;L'Oyapock à Saint-Georges [Saut Maripa];LIMNI;401760;420255;40;-51.8847569480742;3.801667815314443;1;NA;NA;NA;97308;SAINT-GEORGES;973;03;GUYANE;6---0000;"oyapock, l' (fleuve); kérindioutou (rivière)";http://id.eaufrance.fr/CEA/6---0000;NA;2020-06-23T00:00:00Z;1953-04-22T00:00:00Z;NA;NA;1;20;17;1;2;RIC072,RIC322;NA;NA;NA;GUYANE;TRUE
61220001;La Camopi à Camopi [Bienvenue];6122000101;La Camopi à Camopi [Bienvenue];LIMNI;348100;351445;40;-52.36704657008022;3.1786912041343833;1;NA;NA;NA;97356;CAMOPI;973;03;GUYANE;61--0200;camopi (rivière);http://id.eaufrance.fr/CEA/61--0200;NA;2020-06-23T00:00:00Z;1953-09-04T00:00:00Z;1977-02-12T00:00:00Z;NA;1;20;2;1;2;NA;NA;NA;NA;GUYANE;FALSE
61220002;La Camopi à Camopi [Saut Mombin];6122000201;La Camopi à Camopi [Saut Mombin];LIMNI;346300;351680;40;-52.38324560969532;3.180794963159703;1;NA;NA;NA;97356;CAMOPI;973;03;GUYANE;61--0200;camopi (rivière);http://id.eaufrance.fr/CEA/61--0200;NA;2020-06-23T00:00:00Z;1970-01-01T00:00:00Z;1970-02-01T00:00:00Z;NA;1;20;2;1;2;NA;NA;NA;NA;GUYANE;FALSE
61220003;La Camopi à Camopi [Saut Chien];6122000301;La Camopi à Camopi [Saut Chien];LIMNI;334652;351176;40;-52.48804399483034;3.176090312284764;0;NA;NA;NA;97356;CAMOPI;973;03;GUYANE;61--0200;camopi (rivière);http://id.eaufrance.fr/CEA/61--0200;NA;2020-06-23T00:00:00Z;2016-03-09T00:00:00Z;NA;NA;1;16;7;NA;NA;RIC072,RIC322;NA;NA;NA;GUYANE;TRUE
62420001;L'Oyapock à Camopi [Alikoto];6242000101;L'Oyapock à Camopi [Alikoto];LIMNI;352132;340700;40;-52.33064403597309;3.0815547378541885;0;NA;NA;NA;97356;CAMOPI;973;03;GUYANE;6---0000;"oyapock, l' (fleuve); kérindioutou (rivière)";http://id.eaufrance.fr/CEA/6---0000;NA;2021-10-26T00:00:00Z;2016-03-10T00:00:00Z;NA;NA;1;16;127;NA;NA;RIC072,RIC322;NA;NA;NA;GUYANE;TRUE
70220001;La Mana à Mana [Saut Chien];7022000101;La Mana à Mana [Saut Chien];LIMNI;198001;539804;40;-53.722771782442;4.878134131249737;0;NA;NA;NA;97306;MANA;973;03;GUYANE;70--0200;mana, la (fleuve);http://id.eaufrance.fr/CEA/70--0200;NA;2020-06-23T00:00:00Z;1970-11-15T00:00:00Z;1976-12-29T00:00:00Z;NA;1;20;127;1;2;RIC072;NA;NA;NA;GUYANE;FALSE
70500001;La Mana à Mana [Saut Sabbat];7050000101;La Mana à Mana [Saut Sabbat];LIMNI;203795;595800;40;-53.67267909923547;5.38436224814865;3;NA;NA;NA;97306;MANA;973;03;GUYANE;70--0200;mana, la (fleuve);http://id.eaufrance.fr/CEA/70--0200;NA;2021-10-26T00:00:00Z;1953-04-08T00:00:00Z;NA;Présence d'une centrale hydroélectrique à 5kms en amont. Les arrêts ou démarrages de turbines ont une forte influence sur les hauteurs au droit de la station;1;20;17;1;2;RIC072,RIC322;NA;NA;NA;GUYANE;TRUE
80110001;L'Approuague à Régina [Saut Grand Kanori];8011000101;L'Approuague à Régina [Saut Grand Kanori];LIMNI;314542;399931;40;-52.6697318866668;3.61671040733207;0;NA;NA;NA;97301;REGINA;973;03;GUYANE;80--0200;approuague, l' (fleuve);http://id.eaufrance.fr/CEA/80--0200;NA;2020-06-23T00:00:00Z;1953-08-07T00:00:00Z;1976-04-20T00:00:00Z;NA;1;20;2;1;2;NA;NA;NA;NA;GUYANE;FALSE
80310001;L'Approuague à Régina [Pierrette];8031000101;L'Approuague à Régina [Pierrette];LIMNI;326777;444449;40;-52.560331984998626;4.019507258804916;0;NA;NA;NA;97301;REGINA;973;03;GUYANE;80--0200;approuague, l' (fleuve);http://id.eaufrance.fr/CEA/80--0200;NA;2020-06-23T00:00:00Z;1959-01-01T00:00:00Z;2005-07-23T00:00:00Z;NA;1;20;2;1;2;NA;NA;NA;NA;GUYANE;FALSE
80320001;L'Approuague à Régina [Saut Athanase];8032000101;L'Approuague à Régina [Saut Athanase];LIMNI;353279;463011;40;-52.32193405265019;4.187812533145041;1;NA;NA;NA;97301;REGINA;973;03;GUYANE;80--0200;approuague, l' (fleuve);http://id.eaufrance.fr/CEA/80--0200;NA;2020-06-23T00:00:00Z;1991-12-19T00:00:00Z;NA;NA;1;20;17;1;2;RIC072,RIC322;NA;NA;NA;GUYANE;TRUE
90030001;Le Sinnamary à Saint-Élie [Saut Dalles];9003000101;Le Sinnamary à Saint-Élie [Saut Dalles];LIMNI;290671;503131;40;-52.88675386406598;4.549414056081492;0;NA;NA;NA;97358;SAINT-ELIE;973;03;GUYANE;90--0200;sinnamary, le (fleuve);http://id.eaufrance.fr/CEA/90--0200;NA;2020-06-23T00:00:00Z;1990-10-30T00:00:00Z;NA;NA;1;20;123;1;2;NA;NA;NA;NA;GUYANE;TRUE
90110001;Le Koursibo à Saint-Élie [Saut l'Autel];9011000101;Le Koursibo à Saint-Élie [Saut l'Autel];LIMNI;265924;524437;40;-53.11028309689713;4.741412714852502;0;NA;NA;NA;97358;SAINT-ELIE;973;03;GUYANE;90--0210;koursibo (rivière);http://id.eaufrance.fr/CEA/90--0210;NA;2020-06-23T00:00:00Z;1990-10-29T00:00:00Z;NA;NA;1;20;123;1;2;NA;NA;NA;NA;GUYANE;TRUE
90120001;La crique Leblond à Saint-Élie [Crique Leblond];9012000101;La crique Leblond à Saint-Élie [Crique Leblond];LIMNI;261211;523469;40;-53.15272542200743;4.732530655766054;0;NA;NA;NA;97358;SAINT-ELIE;973;03;GUYANE;90120500;"leblond (crique); petit leblond (crique); eau claire (crique)";http://id.eaufrance.fr/CEA/90120500;NA;2020-06-23T00:00:00Z;1993-04-28T00:00:00Z;NA;NA;1;20;123;1;2;NA;NA;NA;NA;GUYANE;TRUE
90200001;Le Koursibo à Saint-Élie [Adieu Vat];9020000101;Le Koursibo à Saint-Élie [Adieu Vat];LIMNI;276836;540062;40;-53.01236436768654;4.8829727463536745;0;NA;NA;NA;97358;SAINT-ELIE;973;03;GUYANE;90--0210;koursibo (rivière);http://id.eaufrance.fr/CEA/90--0210;NA;2020-06-23T00:00:00Z;1953-07-14T00:00:00Z;1977-01-01T00:00:00Z;NA;1;20;2;1;2;NA;NA;NA;NA;GUYANE;FALSE
90230001;Le Sinnamary à Saint-Élie [Saut Tigre];9023000101;Le Sinnamary à Saint-Élie [Saut Tigre];LIMNI;274511;549359;40;-53.03357645008808;4.966962884562724;0;NA;NA;NA;97358;SAINT-ELIE;973;03;GUYANE;90--0200;sinnamary, le (fleuve);http://id.eaufrance.fr/CEA/90--0200;NA;2020-06-23T00:00:00Z;1968-11-20T00:00:00Z;1993-03-25T00:00:00Z;NA;1;20;2;1;2;NA;NA;NA;NA;GUYANE;FALSE
90240001;Le Sinnamary à Sinnamary [Petit Saut];9024000101;Le Sinnamary à Sinnamary [Petit Saut] - amont;LIMNI;273349;560400;40;-53.04436216294184;5.066750236230419;0;NA;NA;NA;97312;SINNAMARY;973;03;GUYANE;90--0200;sinnamary, le (fleuve);http://id.eaufrance.fr/CEA/90--0200;NA;2020-06-23T00:00:00Z;1982-01-01T00:00:00Z;1993-03-25T00:00:00Z;NA;1;20;2;1;2;NA;NA;NA;NA;GUYANE;FALSE
90240001;Le Sinnamary à Sinnamary [Petit Saut];9024000102;Le Sinnamary à Sinnamary [Petit Saut] - aval;LIMNI;271800;560917;40;-53.058342664294905;5.071379993217205;0;NA;NA;NA;97312;SINNAMARY;973;03;GUYANE;90--0200;sinnamary, le (fleuve);http://id.eaufrance.fr/CEA/90--0200;NA;2020-06-23T00:00:00Z;1989-10-12T00:00:00Z;2004-01-01T00:00:00Z;NA;1;20;123;1;2;NA;NA;NA;NA;GUYANE;FALSE
90240002;La crique Grégoire à Sinnamary;9024000201;La crique Grégoire à Sinnamary - Grande Chute (station 1);LIMNI;270379;563047;40;-53.071215814424534;5.090595639632366;0;NA;NA;NA;97312;SINNAMARY;973;03;GUYANE;90240610;grégoire (crique);http://id.eaufrance.fr/CEA/90240610;NA;2020-06-23T00:00:00Z;1968-05-01T00:00:00Z;1979-01-01T00:00:00Z;NA;1;20;8;1;2;NA;NA;NA;NA;GUYANE;FALSE
90240002;La crique Grégoire à Sinnamary;9024000202;La crique Grégoire à Sinnamary - Station 3;LIMNI;272381;563241;40;-53.05317091595569;5.092407373804758;0;NA;NA;NA;97312;SINNAMARY;973;03;GUYANE;90240610;grégoire (crique);http://id.eaufrance.fr/CEA/90240610;NA;2020-06-23T00:00:00Z;1970-04-03T00:00:00Z;1977-01-01T00:00:00Z;NA;1;20;8;1;2;NA;NA;NA;NA;GUYANE;FALSE
90240002;La crique Grégoire à Sinnamary;9024000203;La crique Grégoire à Sinnamary - Petit Saut (station 2);LIMNI;272897;563499;40;-53.04852588982899;5.094754722474031;0;NA;NA;NA;97312;SINNAMARY;973;03;GUYANE;90240610;grégoire (crique);http://id.eaufrance.fr/CEA/90240610;NA;2020-06-23T00:00:00Z;1968-01-01T00:00:00Z;1976-12-30T00:00:00Z;NA;1;20;8;1;2;NA;NA;NA;NA;GUYANE;FALSE
90240003;La crique Toussaint à Sinnamary [Crique Toussaint];9024000301;La crique Toussaint à Sinnamary [Crique Toussaint];LIMNI;277945;592691;40;-53.00384966750189;5.358822749576983;0;NA;NA;NA;97312;SINNAMARY;973;03;GUYANE;90241100;toussaint (crique);http://id.eaufrance.fr/CEA/90241100;NA;2020-06-23T00:00:00Z;1989-10-05T00:00:00Z;1998-11-15T00:00:00Z;NA;1;20;2;1;2;NA;NA;NA;NA;GUYANE;FALSE
91040001;Le Mahury [La Comté] à Roura [Saut Bief];9104000101;Le Mahury [La Comté] à Roura [Saut Bief];LIMNI;332403;501500;40;-52.51067765878968;4.53555179081572;1;NA;NA;NA;97310;ROURA;973;03;GUYANE;91--0200;"mahury, le (fleuve); oyak (rivière); brodel (crique); comté, la (rivière)";http://id.eaufrance.fr/CEA/91--0200;NA;2020-07-09T00:00:00Z;1969-11-20T00:00:00Z;NA;NA;1;20;17;1;2;RIC072,RIC322;NA;NA;NA;GUYANE;TRUE
91100001;L'Orapu à Roura [Saut Bernard];9110000101;L'Orapu à Roura [Saut Bernard];LIMNI;346225;492893;40;-52.38596817264067;4.457959250274059;1;NA;NA;NA;97310;ROURA;973;03;GUYANE;911-0400;orapu (rivière);http://id.eaufrance.fr/CEA/911-0400;NA;2020-07-09T00:00:00Z;1995-10-26T00:00:00Z;NA;NA;1;20;17;1;2;RIC072,RIC322;NA;NA;NA;GUYANE;TRUE
91110001;La rivière de Kounana à Roura [Degrad Lalanne];9111000101;La rivière de Kounana à Roura [Degrad Lalanne];LIMNI;359931;501557;40;-52.2625926912025;4.536543915936907;0;NA;NA;NA;97310;ROURA;973;03;GUYANE;91110620;kounana, de (rivière);http://id.eaufrance.fr/CEA/91110620;NA;2020-06-23T00:00:00Z;1998-03-27T00:00:00Z;2001-07-03T00:00:00Z;NA;1;20;0;1;2;NA;NA;NA;NA;GUYANE;FALSE
91200001;La crique Bellevue [La rivière des Cascades] à Montsinéry-Tonnegrande [Cascade];9120000101;La crique Bellevue [La rivière des Cascades] à Montsinéry-Tonnegrande [Cascade];LIMNI;337123;525704;40;-52.468595188544626;4.754533934357129;0;NA;NA;NA;97313;MONTSINERY-TONNEGRANDE;973;03;GUYANE;91200640;bellevue (crique);http://id.eaufrance.fr/CEA/91200640;NA;2020-06-23T00:00:00Z;1988-09-27T00:00:00Z;1995-12-12T00:00:00Z;NA;1;20;2;1;2;NA;NA;NA;NA;GUYANE;FALSE
91210001;La rivière de Tonnégrande à Montsinéry-Tonnegrande [Carbet ONF];9121000101;La rivière de Tonnégrande à Montsinéry-Tonnegrande [Carbet ONF];LIMNI;331319;532797;40;-52.521056906642904;4.818565758367371;2;NA;NA;NA;97313;MONTSINERY-TONNEGRANDE;973;03;GUYANE;91210500;tonnégrande, de (rivière);http://id.eaufrance.fr/CEA/91210500;NA;2020-07-08T00:00:00Z;1992-10-30T00:00:00Z;NA;NA;1;20;17;1;2;RIC072;NA;NA;NA;GUYANE;TRUE
91210001;La rivière de Tonnégrande à Montsinéry-Tonnegrande [Carbet ONF];9121000102;La rivière de Tonnégrande à Montsinéry-Tonnegrande [Carbet ONF] - Bagne annamites;LIMNI;329594;532436;40;-52.536600756409875;4.8152661175122535;0;NA;NA;NA;97313;MONTSINERY-TONNEGRANDE;973;03;GUYANE;91210500;tonnégrande, de (rivière);http://id.eaufrance.fr/CEA/91210500;NA;2020-06-23T00:00:00Z;2019-03-26T00:00:00Z;NA;NA;1;16;17;NA;NA;RIC072,RIC322;NA;NA;NA;GUYANE;TRUE
91310001;Le Kourou à Kourou [Roche Léodate];9131000101;Le Kourou à Kourou [Roche Léodate];LIMNI;301480;541482;40;-52.7902509528856;4.89644234965471;1;NA;NA;NA;97304;KOUROU;973;03;GUYANE;913-0400;kourou, le (fleuve);http://id.eaufrance.fr/CEA/913-0400;NA;2020-07-08T00:00:00Z;2012-11-13T00:00:00Z;NA;NA;1;20;17;1;2;RIC072;NA;NA;NA;GUYANE;TRUE
91310001;Le Kourou à Kourou [Roche Léodate];9131000102;Le Kourou à Kourou [Roche Léodate] - station amont;LIMNI;301266;541560;40;-52.792182042600416;4.897142475831341;0;NA;NA;NA;97304;KOUROU;973;03;GUYANE;913-0400;kourou, le (fleuve);http://id.eaufrance.fr/CEA/913-0400;NA;2020-12-18T00:00:00Z;2019-05-25T00:00:00Z;NA;NA;1;16;17;NA;NA;RIC072,RIC322;NA;NA;NA;GUYANE;TRUE
91330001;La crique Passoura à Kourou [Pont déviation RN1];9133000101;La crique Passoura à Kourou [Pont déviation RN1];LIMNI;311600;569536;40;-52.699673945599464;5.150361698980495;0;NA;NA;NA;97304;KOUROU;973;03;GUYANE;91330590;passoura (crique);http://id.eaufrance.fr/CEA/91330590;NA;2020-06-23T00:00:00Z;1991-01-01T00:00:00Z;1995-10-11T00:00:00Z;NA;1;20;0;1;2;NA;NA;NA;NA;GUYANE;FALSE
91340001;La crique Karouabo à Kourou [Pont ancienne RN1 (CSG)];9134000101;La crique Karouabo à Kourou [Pont ancienne RN1 (CSG)];LIMNI;302109;578059;40;-52.78548742763984;5.227193576159214;0;NA;NA;NA;97304;KOUROU;973;03;GUYANE;91340740;karouabo (crique);http://id.eaufrance.fr/CEA/91340740;NA;2020-06-23T00:00:00Z;1990-04-02T00:00:00Z;2005-12-05T00:00:00Z;NA;1;20;2;1;2;NA;NA;NA;NA;GUYANE;FALSE
A0210050;Le Rhin en Suisse [Rheinhalle];A021005050;Le Rhin en Suisse [Rheinhalle];LIMNI;1046200;6727500;26;7.606153157619341;47.55696990748868;NA;NA;NA;NA;99140;NA;NA;NA;NA;A---0000;Le Rhin;http://id.eaufrance.fr/CEA/A---0000;NA;2021-02-15T00:00:00Z;1899-12-31T00:00:00Z;NA;NA;1;16;NA;1;0;POH001,POH044,POH905,RIC013,RIC062,RIC112,RIC312;NA;NA;NA;NA;TRUE
A0220200;L'Augraben à Hégenheim;A022020001;L'Augraben à Hégenheim;LIMNI;1040359;6727986;26;7.52898152784537;47.56437683600637;1;Nivellement du zéro de l'échelle limnimétrique établi en juillet 2002 par le géomètre Faber-Schaller à Sélestat (277.721m IGN 69). Cote 0.00m de l'échelle inchangée. Mise à l'heure TU le 16/11/2009.;277721;3;68126;HEGENHEIM;68;44;GRAND EST;A02-0200;Ruisseau l'Augraben;http://id.eaufrance.fr/CEA/A02-0200;NA;2021-01-19T00:00:00Z;1993-01-25T00:00:00Z;NA;NA;1;20;NA;1;2;POH001,POH044,POH122,POH905,RIC312;2002-07-01T00:00:00Z;2013-11-18T00:00:00Z;2020-12-14T00:00:00Z;HAUT-RHIN;TRUE
A0220650;Le ruisseau le Liesbach à Blotzheim;A022065001;Le ruisseau le Liesbach à Blotzheim;LIMNI;1038650;6730460;26;7.508167694705615;47.58748932177319;1;NA;NA;NA;68042;BLOTZHEIM;68;44;GRAND EST;A0220650;Ruisseau le Liesbach;http://id.eaufrance.fr/CEA/A0220650;NA;2021-01-19T00:00:00Z;1993-01-25T00:00:00Z;1996-04-12T00:00:00Z;NA;1;20;12;1;2;NA;NA;NA;NA;HAUT-RHIN;FALSE
A0230100;[Le Liesbach] à Saint-Louis [Langenhaeuser];A023010001;[Le Liesbach] à Saint-Louis [Langenhaeuser];LIMNI;1041333;6732404;26;7.545293760634859;47.60357514817046;3;NA;NA;NA;68297;SAINT-LOUIS;68;44;GRAND EST;00000000;NA;http://id.eaufrance.fr/CEA/00000000;NA;2021-04-13T00:00:00Z;1993-04-02T00:00:00Z;1996-04-12T00:00:00Z;NA;1;20;12;1;2;NA;NA;NA;NA;HAUT-RHIN;FALSE
A0230200;Le ruisseau l'Augraben à Saint-Louis [Michelfelden];A023020001;Le ruisseau l'Augraben à Saint-Louis [Michelfelden];LIMNI;1042215;6731721;26;7.55648847365383;47.59698026692557;3;NA;NA;NA;68297;SAINT-LOUIS;68;44;GRAND EST;A02-0200;Ruisseau l'Augraben;http://id.eaufrance.fr/CEA/A02-0200;NA;2021-01-19T00:00:00Z;1993-02-04T00:00:00Z;1996-04-12T00:00:00Z;NA;1;20;12;1;2;NA;NA;NA;NA;HAUT-RHIN;FALSE
A0230201;Le ruisseau l'Augraben à Bartenheim [La Chaussée];A023020101;Le ruisseau l'Augraben à Bartenheim [La Chaussée];LIMNI;1038775;6736213;26;7.514201614841952;47.63912388282695;3;NA;NA;NA;68021;BARTENHEIM;68;44;GRAND EST;A02-0200;Ruisseau l'Augraben;http://id.eaufrance.fr/CEA/A02-0200;NA;2021-01-19T00:00:00Z;1993-01-11T00:00:00Z;1997-10-14T00:00:00Z;NA;1;20;12;1;2;NA;NA;NA;NA;HAUT-RHIN;FALSE
A0240001;[bassin contre coulées de boues] à Helfrantzkirch;A024000101;[bassin contre coulées de boues] à Helfrantzkirch;LIMNI;1030654;6731792;26;7.402934355654619;47.60351883867542;0;NA;NA;NA;68132;HELFRANTZKIRCH;68;44;GRAND EST;00000000;NA;http://id.eaufrance.fr/CEA/00000000;Station du CG68Digue dans un thalweg dotée à la sortie d'un radar de mesure et d'un pluviomètre à augets basculants;2020-12-14T00:00:00Z;2007-01-01T00:00:00Z;NA;NA;1;16;NA;1;0;POH044,POH122,POH204,POH905;NA;NA;NA;HAUT-RHIN;TRUE
A0260001;[bassin contre coulées de boues] à Steinbrunn-le-Haut;A026000101;[bassin contre coulées de boues] à Steinbrunn-le-Haut;LIMNI;1025319;6737724;26;7.336371643568548;47.65948711007954;0;NA;NA;NA;68324;STEINBRUNN-LE-HAUT;68;44;GRAND EST;00000000;NA;http://id.eaufrance.fr/CEA/00000000;"Station du CG68 Digue dans un thalweg dotée à la sortie d';un radar de mesure et d';un pluviomètre à augets basculants";2020-12-14T00:00:00Z;2007-01-01T00:00:00Z;NA;NA;1;16;NA;1;0;POH044,POH122,POH204,POH905;NA;NA;NA;HAUT-RHIN;TRUE
A0260002;Le ruisseau Weiherbachgraben [bassin contre coulées de boues] à Landser et à Steinbrunn-le-Bas;A026000201;Le ruisseau Weiherbachgraben [bassin contre coulées de boues] à Landser;LIMNI;1028092;6740588;26;7.375372559284739;47.68385009787944;0;NA;NA;NA;68174;LANDSER;68;44;GRAND EST;A0260300;Ruisseau Weiherbachgraben;http://id.eaufrance.fr/CEA/A0260300;"Station du CG68 Digue dans un thalweg dotée d';un radar à la sortie et d';un pluviomètre à augets basculants";2020-12-14T00:00:00Z;2007-01-01T00:00:00Z;NA;NA;1;16;NA;1;0;POH044,POH122,POH204,POH905;NA;NA;NA;HAUT-RHIN;TRUE
A0340022;Le canal du Rhône au Rhin à Sausheim;A034002201;Le canal du Rhône au Rhin à Sausheim;LIMNI;1029454;6752438;26;7.402299785017477;47.78966036304382;3;NA;NA;NA;68300;SAUSHEIM;68;44;GRAND EST;A---0022;Canal du Rhone au Rhin;http://id.eaufrance.fr/CEA/A---0022;NA;2021-05-12T00:00:00Z;1997-12-09T00:00:00Z;2001-10-31T00:00:00Z;NA;1;20;3;1;2;NA;NA;NA;NA;HAUT-RHIN;FALSE
A0340302;Le canal d'irrigation de la Hardt à Hombourg;A034030201;Le canal d'irrigation de la Hardt à Hombourg;LIMNI;1035523;6749337;26;7.480874861988931;47.75872363083632;3;NA;NA;NA;68144;HOMBOURG;68;44;GRAND EST;A0340302;Canal d'Irrigation de la Hardt;http://id.eaufrance.fr/CEA/A0340302;NA;2021-01-19T00:00:00Z;1998-04-06T00:00:00Z;2001-10-31T00:00:00Z;NA;1;20;3;1;2;NA;NA;NA;NA;HAUT-RHIN;FALSE
A0340303;"Le canal du Rhône au Rhin [canal dit ""déclassé""] à Hirtzfelden";A034030301;"Le canal du Rhône au Rhin [canal dit ""déclassé""] à Hirtzfelden";LIMNI;1033300;6764916;26;7.462997095801723;47.8998428267995;0;NA;NA;NA;68140;HIRTZFELDEN;68;44;GRAND EST;----0022;Canal du Rhône au Rhin;http://id.eaufrance.fr/CEA/----0022;Station du CG68 sur le canal déclassé du Rhône au Rhin;2020-12-14T00:00:00Z;2007-01-01T00:00:00Z;NA;NA;1;16;NA;NA;NA;POH044,POH122,POH204,POH905;NA;NA;NA;HAUT-RHIN;TRUE
A0340304;"Le canal du Rhône au Rhin [canal dit ""déclassé""] à Obersaasheim et à Weckolsheim";A034030401;"Le canal du Rhône au Rhin [canal dit ""déclassé""] à Obersaasheim";LIMNI;1036589;6775370;26;7.514937856440341;47.99208888612376;NA;NA;NA;NA;68246;OBERSAASHEIM;68;44;GRAND EST;----0022;Canal du Rhône au Rhin;http://id.eaufrance.fr/CEA/----0022;"Station du CG68 sur le canal du Rhône au Rhin dit canal ""déclassé""";2020-12-14T00:00:00Z;2007-01-01T00:00:00Z;NA;NA;1;16;NA;NA;NA;POH044,POH122,POH204,POH905;NA;NA;NA;HAUT-RHIN;TRUE
A0410300;Le ruisseau le Muhlbach de Schoenau à Schœnau [Ried];A041030001;Le ruisseau le Muhlbach de Schoenau à Schœnau [Ried];LIMNI;1044547;6801024;26;7.641648102318562;48.218398589966974;3;Etude RIED Centre Alsace. Depuis le 26/10/2009, les horaires de cette station sont exprimés en temps universel (TU).;NA;NA;67453;SCHŒNAU;67;44;GRAND EST;A0410300;Ruisseau le Muhlbach de Schoenau;http://id.eaufrance.fr/CEA/A0410300;NA;2021-04-22T00:00:00Z;2004-07-08T00:00:00Z;NA;Prise d'alimentation sur le contre canal de drainage.;1;16;12;1;2;POH001,POH044,POH122,POH905;NA;NA;NA;BAS-RHIN;TRUE
A0410301;Le ruisseau le Muhlbach de Schoenau à Baltzenheim;A041030101;Le ruisseau le Muhlbach de Schoenau à Baltzenheim;LIMNI;1039098;6787213;26;7.557677957595613;48.0971900737949;3;Etude RIED Centre Alsace.;NA;NA;68019;BALTZENHEIM;68;44;GRAND EST;A0410300;Ruisseau le Muhlbach de Schoenau;http://id.eaufrance.fr/CEA/A0410300;NA;2021-04-30T00:00:00Z;2007-07-16T00:00:00Z;2019-03-20T00:00:00Z;Herbiers et régulée par vannages.;1;20;NA;1;2;POH001,POH044,POH122,POH905;NA;NA;NA;HAUT-RHIN;FALSE
A0430300;Le ruisseau l'Ischert à Sundhouse;A043030001;Le ruisseau l'Ischert à Sundhouse;LIMNI;1044866;6806406;26;7.650200649605012;48.26657135345801;3;Etude RIED Centre Alsace.;NA;NA;67486;SUNDHOUSE;67;44;GRAND EST;A0430300;Ruisseau l'Ischert;http://id.eaufrance.fr/CEA/A0430300;NA;2021-05-12T00:00:00Z;2004-03-25T00:00:00Z;2006-07-08T00:00:00Z;NA;1;20;67;1;2;200000009;NA;NA;NA;BAS-RHIN;FALSE
A0520330;Le ruisseau le Neuergraben à Diebolsheim;A052033001;Le ruisseau le Neuergraben à Diebolsheim;LIMNI;1045871;6809037;26;7.665814528748058;48.28966928426276;3;Etude RIED Centre Alsace. Depuis le 26/10/2009, les horaires de cette station sont exprimés en temps universel (TU). Station fermée le 08/09/2017. Une analyse des stations du Ried a été conduite en 2018 menant à redéfinir le réseau. La station de Diebolsheim a été fermée car de mauvaise qualité sur les débits annoncés et pas située sur le secteur le plus intéressant pour évaluer les échanges nappes-rivières.;NA;NA;67090;DIEBOLSHEIM;67;44;GRAND EST;A0520330;Ruisseau le Neuergraben;http://id.eaufrance.fr/CEA/A0520330;NA;2020-06-26T00:00:00Z;2005-03-30T00:00:00Z;2017-09-08T00:00:00Z;Alimentation effectuée par le gestionnaire (syndicat des eaux).;1;16;12;1;2;POH001,POH044,POH122,POH905;NA;NA;NA;BAS-RHIN;FALSE
A0520340;Le ruisseau le Neuergraben à Boofzheim;A052034001;Le ruisseau le Neuergraben à Boofzheim;LIMNI;1047767;6813262;26;7.694716301106617;48.326605288127425;2;Etude RIED Centre Alsace. Depuis le 26/10/2009, les horaires de cette station sont exprimés en temps universel (TU). Station fermée le 22/06/2015.;NA;NA;67055;BOOFZHEIM;67;44;GRAND EST;A0520330;Ruisseau le Neuergraben;http://id.eaufrance.fr/CEA/A0520330;NA;2020-06-26T00:00:00Z;2005-04-07T00:00:00Z;2015-06-22T00:00:00Z;Herbiers.;1;16;17;1;2;POH001,POH044,POH122,POH905;NA;NA;NA;BAS-RHIN;FALSE
A0520550;Le ruisseau Istergraben à Friesenheim;A052055001;Le ruisseau Istergraben à Friesenheim;LIMNI;1046568;6811381;26;7.677065893775739;48.31035122293841;2;Etude RIED Centre Alsace.;NA;NA;67146;FRIESENHEIM;67;44;GRAND EST;A0520550;Ruisseau Istergraben;http://id.eaufrance.fr/CEA/A0520550;NA;2021-05-12T00:00:00Z;2004-10-20T00:00:00Z;2009-06-01T00:00:00Z;Herbiers.;1;16;7;1;2;NA;NA;NA;NA;BAS-RHIN;FALSE
A0530310;Le ruisseau Muhlbach de Gerstheim à Gerstheim [Les Anges];A053031001;Le ruisseau Muhlbach de Gerstheim à Gerstheim [Les Anges];LIMNI;1048529;6820935;26;7.711151400236561;48.39510783050267;3;Etude RIED Centre Alsace. Depuis le 26/10/2009, les horaires de cette station sont exprimés en temps universel (TU). Suite à des travaux de renforcement de berges, la station a été bétonnée et endommagée. Les donnés vont jusqu'au 09 avril 2013 à 12h, date de fermeture de la station.;NA;NA;67154;GERSTHEIM;67;44;GRAND EST;A0530310;Ruisseau Muhlbach de Gerstheim;http://id.eaufrance.fr/CEA/A0530310;NA;2020-06-26T00:00:00Z;2006-05-01T00:00:00Z;2013-04-09T00:00:00Z;Herbiers.;1;16;12;1;2;POH001,POH044,POH122,POH905;NA;NA;NA;BAS-RHIN;FALSE
A0530740;Le ruisseau la Weil à Obenheim;A053074001;Le ruisseau la Weil à Obenheim;LIMNI;1046898;6817866;26;7.686697312285156;48.368418416570194;1;Etude RIED Centre Alsace. Depuis le 26/10/2009, les horaires de cette station sont exprimés en temps universel (TU). Mise hors service le 23/04/2019 à 10:00.;NA;NA;67338;OBENHEIM;67;44;GRAND EST;A0530740;Ruisseau la Weil;http://id.eaufrance.fr/CEA/A0530740;NA;2021-01-19T00:00:00Z;2004-05-06T00:00:00Z;2019-04-23T00:00:00Z;Herbiers.;1;16;12;1;2;POH001,POH044,POH122,POH905;NA;NA;NA;BAS-RHIN;FALSE
A0530742;Le ruisseau le Heulachgraben [cours d'eau phréatique] à Friesenheim [Ried];A053074201;Le ruisseau le Heulachgraben [cours d'eau phréatique] à Friesenheim [Ried] - Zelsheim [Ried];LIMNI;1044969;6809701;26;7.654202061508232;48.296111773831974;NA;Station du réseau Ried, installée le 06/05/2021.;NA;NA;67146;FRIESENHEIM;67;44;GRAND EST;A0530400;Ruisseau le Heulachgraben;http://id.eaufrance.fr/CEA/A0530400;NA;2021-07-28T00:00:00Z;2021-05-06T00:00:00Z;NA;NA;1;16;17;NA;NA;POH001,POH044,POH122;NA;NA;NA;BAS-RHIN;TRUE
A0600050;Le Rhin en Allemagne [Kehl Kronenhof];A060005050;Le Rhin en Allemagne [Kehl Kronenhof];LIMNI;1054300;6840000;26;7.804630572452769;48.56318016853947;NA;NA;NA;NA;99109;NA;NA;NA;NA;A---0000;Le Rhin;http://id.eaufrance.fr/CEA/A---0000;NA;2021-01-11T00:00:00Z;1899-12-31T00:00:00Z;NA;NA;1;16;NA;1;0;POH001,POH044,POH905,RIC013,RIC062,RIC112,RIC312;NA;NA;NA;NA;TRUE
A0600051;Le Rhin à Strasbourg [Pont de l'Europe];A060005101;Le Rhin à Strasbourg [Pont de l'Europe];LIMNI;1053970;6835784;26;7.796697708687639;48.52550515835093;0;NA;150;3;67482;STRASBOURG;67;44;GRAND EST;A---0000;Le Rhin;http://id.eaufrance.fr/CEA/A---0000;NA;2020-06-26T00:00:00Z;1969-01-01T00:00:00Z;1973-12-31T00:00:00Z;NA;1;16;NA;NA;NA;NA;1969-01-01T00:00:00Z;2019-11-25T00:00:00Z;2019-11-25T00:00:00Z;BAS-RHIN;FALSE
A0610050;Le Rhin à Strasbourg [Sémaphore nord];A061005050;Le Rhin à Strasbourg [Sémaphore nord] - Débitmètre fermé;DEB;1053972;6843250;26;7.802870978809509;48.59254037711699;3;"Les métadonnées : coordonnées X/Y, superficie du BV et PK ont été vérifiés courant 2009/2010 et modifiés si nécessaire le 20/04/2010. Le 26/02/2013, cette station a été convertie en station limnimétrique, mais en raison d'une influence aval, la relation """"hauteur-débit"""" n'est valable que pour des débits supérieurs à 1700 m3/s. Pour des débits plus faibles, la relation """"hauteur-débit"""" n'est plus univoque : pour une même hauteur, on peut avoir plusieurs débits.";NA;NA;67482;STRASBOURG;67;44;GRAND EST;A---0000;Le Rhin;http://id.eaufrance.fr/CEA/A---0000;NA;2021-01-06T00:00:00Z;2002-10-24T00:00:00Z;2013-01-01T00:00:00Z;A cause de l'écluse de Gamsheim en aval, la relation 'hauteur-débit' n'est valable que pour des débits supérieurs à 1700 m3/s. Pour des débits plus faibles, la relation hauteur-débit n'est plus univoque : pour une même hauteur, on peut avoir plusieurs déb;1;20;12;1;2;POH001,POH044,POH122,POH905;NA;NA;NA;BAS-RHIN;FALSE
A0610050;Le Rhin à Strasbourg [Sémaphore nord];A061005051;Le Rhin à Strasbourg [Sémaphore nord] - Limnimètre;LIMNI;1053972;6843250;26;7.802870978809509;48.59254037711699;2;"Cette station remplace la station débimétrique A061 0050 50. En raison d'une influence aval, la relation ""hauteur-débit"" n'est valable que pour des débits supérieurs à 1700 m3/s. Pour des débits plus faibles, la relation ""hauteur-débit"" n'est plus univoque : pour une même hauteur, on peut avoir plusieurs débits. Zéro de l'échelle 134,21m (IGN69) = 133,66m (NN)";134210;3;67482;STRASBOURG;67;44;GRAND EST;A---0000;Le Rhin;http://id.eaufrance.fr/CEA/A---0000;NA;2020-12-14T00:00:00Z;2013-01-01T00:00:00Z;NA;Forte influence aval provoquée par les écluses de Gambsheim.  En dessous de 1700 m3/s, la relation hauteur/débit n'est pas bonne.;1;12;2;NA;NA;POH001,POH044,POH122,POH905,RIC062,RIC312;2010-01-01T00:00:00Z;2020-04-22T00:00:00Z;2020-12-14T00:00:00Z;BAS-RHIN;TRUE
A1000030;L'Ill à Oltingue [Pont D 21b];A100003001;L'Ill à Oltingue [Pont D 21b];LIMNI;1030618;6718946;26;7.39294942999333;47.48808424510968;NA;Hauteurs influencées par les algues en été. Mise à l'heure TU le 16/11/2010.;401776;3;68248;OLTINGUE;68;44;GRAND EST;A---0030;L'Ill;http://id.eaufrance.fr/CEA/A---0030;NA;2021-01-19T00:00:00Z;2006-09-07T00:00:00Z;NA;NA;1;20;12;1;2;POH001,POH044,POH122,POH905,RIC062,RIC312;2006-09-07T00:00:00Z;2013-11-18T00:00:00Z;2020-12-14T00:00:00Z;HAUT-RHIN;TRUE
