code_site;libelle_site;code_station;libelle_station;type_station;coordonnee_x_station;coordonnee_y_station;code_projection;longitude_station;latitude_station;influence_locale_station;commentaire_station;altitude_ref_alti_station;code_systeme_alti_site;code_commune_station;libelle_commune;code_departement;code_region;libelle_region;code_cours_eau;libelle_cours_eau;uri_cours_eau;descriptif_station;date_maj_station;date_ouverture_station;date_fermeture_station;commentaire_influence_locale_station;code_regime_station;qualification_donnees_station;code_finalite_station;type_contexte_loi_stat_station;type_loi_station;code_sandre_reseau_station;date_debut_ref_alti_station;date_activation_ref_alti_station;date_maj_ref_alti_station;libelle_departement;en_service
U0204001;L'Amance à Maizières-sur-Amance;U020400101;L'Amance à Maizières-sur-Amance;LIMNI;896428;6750379;26;5.625590335711707;47.82441156713717;1;NA;NA;NA;52303;MAIZIERES-SUR-AMANCE;52;44;GRAND EST;U02-0400;L'Amance;http://id.eaufrance.fr/CEA/U02-0400;NA;2021-01-19T00:00:00Z;2002-08-07T00:00:00Z;NA;NA;1;20;NA;NA;NA;600000184,POH005,POH045,POH106,POH900,RIC063,RIC313;NA;NA;NA;HAUTE-MARNE;TRUE
U0230010;La Saône à Cendrecourt;U023001001;La Saône à Cendrecourt;LIMNI;919156;6754861;26;5.931346878521073;47.85752843849984;3;Le 01/02/2008 : le producteur DIREN Rhône-Alpes/Bassin RMC est remplacé par la DIREN Bourgogne. Le 10/02/2010 : le producteur DIREN Bourgogne est remplacé par la DREAL Franche-Comté.;213000;3;70114;CENDRECOURT;70;27;BOURGOGNE-FRANCHE-COMTE;U---0000;La Saône;http://id.eaufrance.fr/CEA/U---0000;NA;2021-01-19T00:00:00Z;1963-09-05T00:00:00Z;NA;NA;1;20;12;1;2;600000184,BSH001,BSH052,BSH101,BSH152,POH005,POH045,POH106,POH900,RIC014,RIC063,RIC113,RIC313;1963-09-05T00:00:00Z;2013-11-18T00:00:00Z;2020-12-22T00:00:00Z;HAUTE-SAONE;TRUE
U0234010;L'Amance à Raincourt;U023401001;L'Amance à Raincourt;LIMNI;914910;6754365;26;5.874363268444733;47.85447201431344;1;NA;NA;NA;70436;RAINCOURT;70;27;BOURGOGNE-FRANCHE-COMTE;U02-0400;L'Amance;http://id.eaufrance.fr/CEA/U02-0400;NA;2021-05-12T00:00:00Z;1974-04-26T00:00:00Z;1997-03-18T00:00:00Z;NA;1;20;1;1;2;600000184;NA;NA;NA;HAUTE-SAONE;FALSE
U0415010;Le Breuchin à la Proiselière-et-Langle;U041501001;Le Breuchin à la Proiselière-et-Langle;LIMNI;961876;6753242;26;6.501105893259112;47.82731348238666;1;NA;342000;2;70425;PROISELIERE-ET-LANGLE;70;27;BOURGOGNE-FRANCHE-COMTE;U0410500;Le Breuchin;http://id.eaufrance.fr/CEA/U0410500;NA;2021-01-19T00:00:00Z;1967-08-09T00:00:00Z;NA;NA;1;20;12;1;2;600000184,BSH001,BSH052,BSH101,BSH152,POH005,POH045,POH106,POH900,RIC063,RIC313;1967-08-09T00:00:00Z;2013-11-18T00:00:00Z;2016-10-06T00:00:00Z;HAUTE-SAONE;TRUE
U0415020;Le Breuchin à Froideconche [La Lie aux Moines];U041502001;Le Breuchin à Froideconche [La Lie aux Moines];LIMNI;956872;6753716;26;6.434566405720332;47.83355262417183;1;NA;NA;NA;70258;FROIDECONCHE;70;27;BOURGOGNE-FRANCHE-COMTE;U0410500;Le Breuchin;http://id.eaufrance.fr/CEA/U0410500;NA;2021-05-12T00:00:00Z;1978-05-30T00:00:00Z;1979-11-29T00:00:00Z;NA;1;20;12;1;2;600000184;NA;NA;NA;HAUTE-SAONE;FALSE
U0415030;Le Breuchin à Breuches [Champs Coquards];U041503001;Le Breuchin à Breuches [Champs Coquards];LIMNI;947917;6749676;26;6.312709707892135;47.80066777383811;1;NA;NA;NA;70093;BREUCHES;70;27;BOURGOGNE-FRANCHE-COMTE;U0410500;Le Breuchin;http://id.eaufrance.fr/CEA/U0410500;NA;2021-10-07T00:00:00Z;2000-09-15T00:00:00Z;NA;NA;1;16;12;1;2;600000184,POH005,POH045,POH106,POH900;NA;NA;NA;HAUTE-SAONE;TRUE
U0424010;La Lanterne à Briaucourt;U042401001;La Lanterne à Briaucourt;LIMNI;943986;6751653;26;6.261333648019274;47.8199179665237;1;NA;NA;NA;70097;BRIAUCOURT;70;27;BOURGOGNE-FRANCHE-COMTE;U04-0400;La Lanterne;http://id.eaufrance.fr/CEA/U04-0400;NA;2021-05-12T00:00:00Z;1968-06-28T00:00:00Z;1975-05-28T00:00:00Z;NA;1;20;12;1;2;NA;NA;NA;NA;HAUTE-SAONE;FALSE
U0444310;La Sémouse à Saint-Loup-sur-Semouse;U044431001;La Sémouse à Saint-Loup-sur-Semouse;LIMNI;944462;6758982;26;6.271745842533125;47.885644722734;1;NA;NA;NA;70467;SAINT-LOUP-SUR-SEMOUSE;70;27;BOURGOGNE-FRANCHE-COMTE;U04-0430;La Semouse;http://id.eaufrance.fr/CEA/U04-0430;NA;2021-01-19T00:00:00Z;1974-05-16T00:00:00Z;NA;NA;1;20;12;1;2;600000184,BSH001,BSH052,BSH101,BSH152,POH005,POH045,POH106,POH900,RIC063,RIC313;NA;NA;NA;HAUTE-SAONE;TRUE
U0455010;La Combeauté au Val-d'Ajol;U045501001;La Combeauté au Val-d'Ajol;LIMNI;959778;6763787;26;6.479301348330957;47.92295792132982;3;NA;NA;NA;88487;VAL-D'AJOL;88;44;GRAND EST;U0450500;La Combeauté;http://id.eaufrance.fr/CEA/U0450500;NA;2021-02-15T00:00:00Z;1988-12-31T00:00:00Z;NA;NA;1;20;12;1;2;600000184,POH005,POH045,POH106,POH900,RIC063,RIC313;NA;NA;NA;VOSGES;TRUE
U0460500;Le Planey [source] à Anjeux [amont];U046050001;Le Planey [source] à Anjeux [amont];LIMNI;941531;6758043;26;6.232048909987016;47.878287140583346;1;NA;NA;NA;70023;ANJEUX;70;27;BOURGOGNE-FRANCHE-COMTE;U0460500;Le Planey;http://id.eaufrance.fr/CEA/U0460500;NA;2021-05-12T00:00:00Z;1995-10-12T00:00:00Z;2002-02-28T00:00:00Z;NA;1;20;12;1;2;NA;NA;NA;NA;HAUTE-SAONE;FALSE
U0460510;Le Planey à Anjeux [Le Triquet];U046051001;Le Planey à Anjeux [Le Triquet];LIMNI;940545;6756817;26;6.21820111935637;47.867624919496606;NA;NA;NA;NA;70023;ANJEUX;70;27;BOURGOGNE-FRANCHE-COMTE;U0460500;Le Planey;http://id.eaufrance.fr/CEA/U0460500;NA;2021-10-21T00:00:00Z;1998-06-24T00:00:00Z;NA;NA;1;16;12;1;2;POH005,POH045,POH106,POH900;NA;NA;NA;HAUTE-SAONE;TRUE
U0474010;La Lanterne à Fleurey-lès-Faverney;U047401001;La Lanterne à Fleurey-lès-Faverney;LIMNI;930453;6743152;26;6.076203548130702;47.74835480005849;1;Le 04/02/2008 : le producteur DIREN Rhône-Alpes/Bassin RMC est remplacé par la DIREN Franche-Comté.;211000;3;70236;FLEUREY-LES-FAVERNEY;70;27;BOURGOGNE-FRANCHE-COMTE;U04-0400;La Lanterne;http://id.eaufrance.fr/CEA/U04-0400;NA;2021-01-19T00:00:00Z;1963-09-05T00:00:00Z;NA;NA;1;20;12;1;2;600000184,BSH001,BSH052,BSH101,BSH152,POH005,POH045,POH106,POH900,RIC063,RIC313;1963-09-05T00:00:00Z;2013-11-18T00:00:00Z;2020-01-14T00:00:00Z;HAUTE-SAONE;TRUE
U0504010;Le Durgeon à Colombier;U050401001;Le Durgeon à Colombier;LIMNI;940821;6733569;26;6.209255439514837;47.658456539264655;1;NA;NA;NA;70163;COLOMBIER;70;27;BOURGOGNE-FRANCHE-COMTE;U05-0400;Le Durgeon;http://id.eaufrance.fr/CEA/U05-0400;NA;2021-01-19T00:00:00Z;2004-05-17T00:00:00Z;NA;NA;1;16;12;1;2;600000184,POH005,POH045,POH106,POH900,RIC063,RIC313;NA;NA;NA;HAUTE-SAONE;TRUE
U0515010;Le Bâtard à Villeparois;U051501001;Le Bâtard à Villeparois;LIMNI;938507;6733544;26;6.1784384137468304;47.65907391706981;1;Remplacement de l'ancienne station arrêtée le 09/11/2004 à 15h45. En essai.;NA;NA;70559;VILLEPAROIS;70;27;BOURGOGNE-FRANCHE-COMTE;U0510500;Le Bâtard;http://id.eaufrance.fr/CEA/U0510500;NA;2021-02-15T00:00:00Z;2004-05-20T00:00:00Z;NA;NA;1;16;12;1;2;600000184,POH005,POH045,POH106,POH900,RIC063,RIC313;NA;NA;NA;HAUTE-SAONE;TRUE
U0525010;La Colombine à Frotey-lès-Vesoul;U052501001;La Colombine à Frotey-lès-Vesoul;LIMNI;939181;6729160;26;6.185055384198801;47.61940129314757;1;NA;NA;NA;70261;FROTEY-LES-VESOUL;70;27;BOURGOGNE-FRANCHE-COMTE;U0520500;La Colombine;http://id.eaufrance.fr/CEA/U0520500;NA;2021-01-19T00:00:00Z;1992-01-09T00:00:00Z;NA;NA;1;20;12;1;2;600000184,POH005,POH045,POH106,POH900,RIC063,RIC313;NA;NA;NA;HAUTE-SAONE;TRUE
U0525610;La Font de Champdamois à Quincey;U052561001;La Font de Champdamois à Quincey;LIMNI;939588;6728451;26;6.190088085564163;47.612876879690255;3;NA;NA;NA;70433;QUINCEY;70;27;BOURGOGNE-FRANCHE-COMTE;U0520560;Font de Champdamois;http://id.eaufrance.fr/CEA/U0520560;NA;2021-02-15T00:00:00Z;1994-09-28T00:00:00Z;1997-07-15T00:00:00Z;NA;1;20;12;1;2;NA;NA;NA;NA;HAUTE-SAONE;FALSE
U0534010;Le Durgeon à Chariez;U053401001;Le Durgeon à Chariez;LIMNI;930074;6729579;26;6.064122467741948;47.626412636127355;1;NA;209000;2;70134;CHARIEZ;70;27;BOURGOGNE-FRANCHE-COMTE;U05-0400;Le Durgeon;http://id.eaufrance.fr/CEA/U05-0400;NA;2021-05-12T00:00:00Z;1971-06-24T00:00:00Z;1979-05-10T00:00:00Z;NA;1;20;12;1;2;NA;1971-06-24T00:00:00Z;2013-11-18T00:00:00Z;2013-11-18T00:00:00Z;HAUTE-SAONE;FALSE
U0534020;Le Durgeon à Pontcey;U053402001;Le Durgeon à Pontcey;LIMNI;927723;6730497;26;6.033312251536027;47.63548623915699;3;NA;NA;NA;70417;PONTCEY;70;27;BOURGOGNE-FRANCHE-COMTE;U05-0400;Le Durgeon;http://id.eaufrance.fr/CEA/U05-0400;NA;2021-05-12T00:00:00Z;1979-12-19T00:00:00Z;1994-07-22T00:00:00Z;Influence de la Saône en crue.;1;20;12;1;2;NA;NA;NA;NA;HAUTE-SAONE;FALSE
U0600010;La Saône à Scey-sur-Saône-et-Saint-Albin [Saint-Albin];U060001001;La Saône à Scey-sur-Saône-et-Saint-Albin [Saint-Albin];LIMNI;922979;6731016;26;5.970441465856344;47.641777308852014;3;Le 01/02/2008 : le producteur DIREN Rhône-Alpes/Bassin RMC est remplacé par la DIREN Bourgogne. Le 10/02/2010 : le producteur DIREN Bourgogne est remplacé par la DREAL Franche-Comté.;203000;3;70482;SCEY-SUR-SAONE-ET-SAINT-ALBIN;70;27;BOURGOGNE-FRANCHE-COMTE;U---0000;La Saône;http://id.eaufrance.fr/CEA/U---0000;NA;2021-01-19T00:00:00Z;1986-09-30T00:00:00Z;NA;NA;1;20;2;1;2;600000184,POH005,POH045,POH106,POH900,RIC014,RIC063,RIC113,RIC313;1986-09-30T00:00:00Z;2013-11-18T00:00:00Z;2019-01-31T00:00:00Z;HAUTE-SAONE;TRUE
U0610010;La Saône à Ray-sur-Saône;U061001001;La Saône à Ray-sur-Saône;LIMNI;912411;6723374;26;5.826139833522219;47.57652781208346;1;Le 01/02/2008 : le producteur DIREN Rhône-Alpes/Bassin RMC est remplacé par la DIREN Bourgogne. Le 10/02/2010 : le producteur DIREN Bourgogne est remplacé par la DREAL Franche-Comté.;194000;3;70438;RAY-SUR-SAONE;70;27;BOURGOGNE-FRANCHE-COMTE;U---0000;La Saône;http://id.eaufrance.fr/CEA/U---0000;NA;2021-01-19T00:00:00Z;1964-05-20T00:00:00Z;NA;NA;1;20;12;1;2;600000184,BSH001,BSH052,BSH101,BSH152,POH005,POH045,POH106,POH900,RIC063,RIC313;1964-05-20T00:00:00Z;2013-11-18T00:00:00Z;2020-12-22T00:00:00Z;HAUTE-SAONE;TRUE
U0620510;La Romaine à Fresne-Saint-Mamès;U062051001;La Romaine à Fresne-Saint-Mamès;LIMNI;913756;6720924;26;5.842846633496263;47.554054306420895;3;NA;NA;NA;70255;FRESNE-SAINT-MAMES;70;27;BOURGOGNE-FRANCHE-COMTE;U0620500;La Romaine;http://id.eaufrance.fr/CEA/U0620500;NA;2021-05-12T00:00:00Z;1976-11-18T00:00:00Z;1986-06-16T00:00:00Z;Site influencé par la Saône en crue.;1;20;12;1;2;NA;NA;NA;NA;HAUTE-SAONE;FALSE
U0620530;La Romaine à Maizières;U062053001;La Romaine à Maizières;LIMNI;926874;6714226;26;6.013746473141947;47.48942564049667;1;NA;NA;NA;70325;MAIZIERES;70;27;BOURGOGNE-FRANCHE-COMTE;U0620500;La Romaine;http://id.eaufrance.fr/CEA/U0620500;NA;2021-06-14T00:00:00Z;1986-05-22T00:00:00Z;1995-02-11T00:00:00Z;NA;1;20;1;1;2;600000184,POH005,POH045,POH900;NA;NA;NA;HAUTE-SAONE;FALSE
U0620530;La Romaine à Maizières;U062053002;La Romaine à Maizières;LIMNI;926372;6714817;26;6.007383323927409;47.49491398305427;1;NA;NA;NA;70325;MAIZIERES;70;27;BOURGOGNE-FRANCHE-COMTE;U0620500;La Romaine;http://id.eaufrance.fr/CEA/U0620500;NA;2021-01-19T00:00:00Z;2001-12-11T00:00:00Z;NA;NA;1;20;12;1;2;600000184,BSH001,BSH052,BSH101,BSH152,POH005,POH045,POH106,POH900,RIC063,RIC313;NA;NA;NA;HAUTE-SAONE;TRUE
U0635010;La Gourgeonne à Tincey-et-Pontrebeau;U063501001;La Gourgeonne à Tincey-et-Pontrebeau;LIMNI;909983;6726548;26;5.795356659189959;47.6058572895715;1;NA;NA;NA;70502;TINCEY-ET-PONTREBEAU;70;27;BOURGOGNE-FRANCHE-COMTE;U0630500;La Gourgeonne;http://id.eaufrance.fr/CEA/U0630500;NA;2021-01-19T00:00:00Z;1974-05-17T00:00:00Z;NA;NA;1;20;12;1;2;600000184,POH005,POH045,POH106,POH900,RIC063,RIC313;NA;NA;NA;HAUTE-SAONE;TRUE
U0704010;Le Salon à Coublanc;U070401001;Le Salon à Coublanc;LIMNI;884727;6735170;26;5.462952742603;47.6909882368294;NA;NA;NA;NA;52145;COUBLANC;52;44;GRAND EST;U07-0400;Le Salon;http://id.eaufrance.fr/CEA/U07-0400;NA;2021-01-19T00:00:00Z;1996-12-12T00:00:00Z;2014-11-13T00:00:00Z;NA;1;20;12;1;2;POH005,POH045,POH900;NA;NA;NA;HAUTE-MARNE;FALSE
U0715010;La Resaigne à Coublanc;U071501001;La Resaigne à Coublanc;LIMNI;884436;6735113;26;5.459051709527238;47.69055706348867;NA;NA;NA;NA;52145;COUBLANC;52;44;GRAND EST;U0710500;La Resaigne;http://id.eaufrance.fr/CEA/U0710500;NA;2021-01-19T00:00:00Z;1996-12-12T00:00:00Z;2016-01-05T00:00:00Z;NA;1;20;12;1;2;POH005,POH045,POH900;NA;NA;NA;HAUTE-MARNE;FALSE
U0724010;Le Salon à Denèvre;U072401001;Le Salon à Denèvre;LIMNI;899013;6722089;26;5.6474437893688325;47.569147168581054;1;NA;NA;NA;70204;DENEVRE;70;27;BOURGOGNE-FRANCHE-COMTE;U07-0400;Le Salon;http://id.eaufrance.fr/CEA/U07-0400;NA;2021-01-19T00:00:00Z;1969-10-30T00:00:00Z;NA;NA;1;20;12;1;2;600000184,BSH001,BSH052,BSH101,BSH152,POH005,POH045,POH106,POH900,RIC063,RIC313;NA;NA;NA;HAUTE-SAONE;TRUE
U0815010;La Morte à Saint-Broing;U081501001;La Morte à Saint-Broing;LIMNI;903355;6708630;26;5.69904269238106;47.4467416252156;1;NA;191000;2;70461;SAINT-BROING;70;27;BOURGOGNE-FRANCHE-COMTE;U0810500;La Morte;http://id.eaufrance.fr/CEA/U0810500;NA;2021-01-19T00:00:00Z;1984-06-26T00:00:00Z;NA;NA;1;20;147;1;2;600000184,POH005,POH045,POH106,POH900,RIC063,RIC313;1984-06-26T00:00:00Z;2013-11-18T00:00:00Z;2019-09-26T00:00:00Z;HAUTE-SAONE;TRUE
U0820010;La Saône à Gray;U082001001;La Saône à Gray;LIMNI;895202;6708680;26;5.590932499814234;47.44964939265138;1;Le 01/02/2008 : le producteur DIREN Rhône-Alpes/Bassin RMC est remplacé par la DIREN Bourgogne. Le 10/02/2010 : le producteur DIREN Bourgogne est remplacé par la DREAL Franche-Comté.;186000;3;70279;GRAY;70;27;BOURGOGNE-FRANCHE-COMTE;U---0000;La Saône;http://id.eaufrance.fr/CEA/U---0000;NA;2021-01-19T00:00:00Z;1986-06-19T00:00:00Z;NA;NA;1;20;2;1;2;600000184,POH005,POH045,POH106,POH900,RIC063,RIC113,RIC313;1986-06-19T00:00:00Z;2013-11-18T00:00:00Z;2020-12-22T00:00:00Z;HAUTE-SAONE;TRUE
U0825110;Le ruisseau des Ecoulottes de Vars à Auvet-et-la-Chapelotte;U082511001;Le ruisseau des Ecoulottes de Vars à Auvet-et-la-Chapelotte;LIMNI;890142;6715213;26;5.526590729667386;47.50990224804658;3;NA;NA;NA;70043;AUVET-ET-LA-CHAPELOTTE;70;27;BOURGOGNE-FRANCHE-COMTE;U0820520;Ruisseau des Ecoulottes de Vars;http://id.eaufrance.fr/CEA/U0820520;NA;2021-05-12T00:00:00Z;1993-05-05T00:00:00Z;1995-06-02T00:00:00Z;NA;1;20;12;1;2;600000184;NA;NA;NA;HAUTE-SAONE;FALSE
U0924010;La Vingeanne à Saint-Maurice-sur-Vingeanne;U092401001;La Vingeanne à Saint-Maurice-sur-Vingeanne;LIMNI;880856;6722483;26;5.406220261499235;47.57792099769333;1;NA;232443;3;21562;SAINT-MAURICE-SUR-VINGEANNE;21;27;BOURGOGNE-FRANCHE-COMTE;U09-0400;La Vingeanne;http://id.eaufrance.fr/CEA/U09-0400;NA;2021-01-19T00:00:00Z;1970-12-01T00:00:00Z;NA;NA;1;20;24;1;2;POH005,POH045,POH106,POH900,RIC063,RIC313;1970-12-01T00:00:00Z;2013-11-18T00:00:00Z;2016-10-06T00:00:00Z;COTE-D'OR;TRUE
U0924020;La Vingeanne à Oisilly;U092402001;La Vingeanne à Oisilly;LIMNI;878446;6705034;26;5.367217913798336;47.42157952042703;1;NA;199823;2;21467;OISILLY;21;27;BOURGOGNE-FRANCHE-COMTE;U09-0400;La Vingeanne;http://id.eaufrance.fr/CEA/U09-0400;NA;2021-01-19T00:00:00Z;1970-12-01T00:00:00Z;NA;NA;1;20;12;1;2;BSH001,BSH052,BSH101,BSH152,POH005,POH045,POH106,POH900,RIC063,RIC313;1970-12-01T00:00:00Z;2013-11-18T00:00:00Z;2013-11-18T00:00:00Z;COTE-D'OR;TRUE
U1004010;L'Ognon à Servance [Fourguenons];U100401001;L'Ognon à Servance [Fourguenons];LIMNI;974449;6751079;26;6.667620023500083;47.802731422177374;1;Zéro échelle précédent: 378.000 m en NGF 1884 - 28/06/1968 à 12:00;378000;2;70489;SERVANCE-MIELLIN;70;27;BOURGOGNE-FRANCHE-COMTE;U10-0400;L'Ognon;http://id.eaufrance.fr/CEA/U10-0400;NA;2021-01-19T00:00:00Z;1968-06-28T00:00:00Z;NA;NA;1;20;12;1;2;600000184,POH005,POH045,POH106,POH900,RIC063,RIC313;1968-06-28T00:00:00Z;2013-11-18T00:00:00Z;2020-12-22T00:00:00Z;HAUTE-SAONE;TRUE
U1014010;L'Ognon à Vouhenans;U101401001;L'Ognon à Vouhenans;LIMNI;961203;6734044;26;6.480813147257529;47.654958814749904;1;NA;NA;NA;70577;VOUHENANS;70;27;BOURGOGNE-FRANCHE-COMTE;U10-0400;L'Ognon;http://id.eaufrance.fr/CEA/U10-0400;NA;2021-02-15T00:00:00Z;1985-08-12T00:00:00Z;1994-02-22T00:00:00Z;NA;1;20;12;1;2;NA;NA;NA;NA;HAUTE-SAONE;FALSE
U1014020;L'Ognon à Montessaux;U101402001;L'Ognon à Montessaux;LIMNI;966771;6743771;26;6.5607547368140144;47.740187748681755;1;Le 04/02/2008 : le producteur DIREN Rhône-Alpes/Bassin RMC est remplacé par la DIREN Franche-Comté.;327000;3;70361;MONTESSAUX;70;27;BOURGOGNE-FRANCHE-COMTE;U10-0400;L'Ognon;http://id.eaufrance.fr/CEA/U10-0400;NA;2021-01-19T00:00:00Z;1992-11-01T00:00:00Z;NA;NA;1;20;12;1;2;600000184,POH005,POH045,POH106,POH900,RIC014,RIC063,RIC113,RIC313;1992-11-01T00:00:00Z;2013-11-18T00:00:00Z;2020-12-22T00:00:00Z;HAUTE-SAONE;TRUE
U1025010;Le Rahin à Plancher-Bas;U102501001;Le Rahin à Plancher-Bas;LIMNI;979493;6743309;26;6.730025142764552;47.73074958744154;1;NA;441000;2;70413;PLANCHER-BAS;70;27;BOURGOGNE-FRANCHE-COMTE;U1020500;Le Rahin;http://id.eaufrance.fr/CEA/U1020500;NA;2021-10-07T00:00:00Z;1968-01-01T00:00:00Z;NA;NA;1;20;12;1;2;600000184,BSH001,BSH052,BSH101,BSH152,POH005,POH045,POH106,POH900,RIC063,RIC313;1968-01-01T00:00:00Z;2013-11-18T00:00:00Z;2016-10-06T00:00:00Z;HAUTE-SAONE;TRUE
U1025010;Le Rahin à Plancher-Bas;U102501002;Le Rahin à Plancher-Bas - - Sonde RG;LIMNI;979493;6743309;26;6.730025142764552;47.73074958744154;NA;Station temporaire installée en RG pour travaux sur le pont et démontage temporaire de la station historique (roue codeuse en RD);442;1;70413;PLANCHER-BAS;70;27;BOURGOGNE-FRANCHE-COMTE;U1020500;Le Rahin;http://id.eaufrance.fr/CEA/U1020500;NA;2021-10-07T00:00:00Z;2021-10-01T00:00:00Z;2050-12-01T00:00:00Z;NA;1;16;NA;NA;NA;RIC063,RIC313;2021-10-01T00:00:00Z;2021-09-24T00:00:00Z;2021-09-24T00:00:00Z;HAUTE-SAONE;TRUE
U1025020;Le Rahin à Champagney [Plancher Bas, Monument];U102502001;Le Rahin à Champagney [Plancher Bas, Monument];LIMNI;979041;6740489;26;6.722229075379281;47.70558806464067;1;NA;NA;NA;70120;CHAMPAGNEY;70;27;BOURGOGNE-FRANCHE-COMTE;U1020500;Le Rahin;http://id.eaufrance.fr/CEA/U1020500;NA;2021-05-12T00:00:00Z;1978-07-18T00:00:00Z;1979-12-06T00:00:00Z;NA;1;20;12;1;2;NA;NA;NA;NA;HAUTE-SAONE;FALSE
U1025030;Le Rahin au Val-de-Gouhenans;U102503001;Le Rahin au Val-de-Gouhenans;LIMNI;961302;6730607;26;6.48011340768916;47.624013254969945;1;NA;NA;NA;70515;VAL-DE-GOUHENANS;70;27;BOURGOGNE-FRANCHE-COMTE;U1020500;Le Rahin;http://id.eaufrance.fr/CEA/U1020500;NA;2021-05-12T00:00:00Z;1985-06-11T00:00:00Z;1990-01-23T00:00:00Z;NA;1;20;12;1;2;600000184;NA;NA;NA;HAUTE-SAONE;FALSE
U1035410;Le Scey à Beveuge;U103541001;Le Scey à Beveuge;LIMNI;962357;6724464;26;6.490531739698698;47.56835389287405;1;NA;NA;NA;70072;BEVEUGE;70;27;BOURGOGNE-FRANCHE-COMTE;U1030540;Le Scey;http://id.eaufrance.fr/CEA/U1030540;NA;2021-01-19T00:00:00Z;1974-04-12T00:00:00Z;NA;NA;1;20;12;1;2;600000184,BSH001,BSH052,BSH101,BSH152,POH005,POH045,POH106,POH900,RIC063,RIC313;NA;NA;NA;HAUTE-SAONE;TRUE
U1044010;L'Ognon à Chassey-lès-Montbozon [Bonnal];U104401001;L'Ognon à Chassey-lès-Montbozon [Bonnal];LIMNI;952399;6717302;26;6.35416290344659;47.50782990869997;1;Le 04/02/2008 : le producteur DIREN Rhône-Alpes/Bassin RMC est remplacé par la DIREN Franche-Comté.;250000;3;70137;CHASSEY-LES-MONTBOZON;70;27;BOURGOGNE-FRANCHE-COMTE;U10-0400;L'Ognon;http://id.eaufrance.fr/CEA/U10-0400;NA;2021-01-19T00:00:00Z;1986-12-09T00:00:00Z;NA;NA;1;20;12;1;2;600000184,BSH001,BSH052,BSH101,BSH152,POH005,POH045,POH106,POH900,RIC014,RIC063,RIC113,RIC313;1986-12-09T00:00:00Z;2013-11-18T00:00:00Z;2020-12-22T00:00:00Z;HAUTE-SAONE;TRUE
U1054010;L'Ognon à Beaumotte-Aubertans;U105401001;L'Ognon à Beaumotte-Aubertans;LIMNI;939779;6706553;26;6.180889388683753;47.41585239715204;1;NA;228000;2;70059;BEAUMOTTE-AUBERTANS;70;27;BOURGOGNE-FRANCHE-COMTE;U10-0400;L'Ognon;http://id.eaufrance.fr/CEA/U10-0400;NA;2021-01-19T00:00:00Z;1967-09-13T00:00:00Z;NA;NA;1;20;12;1;2;600000184,BSH001,BSH052,BSH101,BSH152,POH005,POH045,POH106,POH900,RIC063,RIC113,RIC313;1967-09-13T00:00:00Z;2013-11-18T00:00:00Z;2020-12-22T00:00:00Z;HAUTE-SAONE;TRUE
U1074010;L'Ognon à Chevigney-sur-l'Ognon;U107401001;L'Ognon à Chevigney-sur-l'Ognon;LIMNI;913398;6692335;26;5.824494847860444;47.296980289658535;1;NA;200000;2;25150;CHEVIGNEY-SUR-L'OGNON;25;27;BOURGOGNE-FRANCHE-COMTE;U10-0400;L'Ognon;http://id.eaufrance.fr/CEA/U10-0400;NA;2021-05-12T00:00:00Z;1968-07-12T00:00:00Z;2000-04-11T00:00:00Z;NA;1;20;12;1;2;NA;1968-07-12T00:00:00Z;2013-11-18T00:00:00Z;2013-11-18T00:00:00Z;DOUBS;FALSE
U1074020;L'Ognon à Pin;U107402001;L'Ognon à Pin;LIMNI;916473;6694641;26;5.866266907569335;47.31672897993821;NA;NA;NA;NA;70410;PIN;70;27;BOURGOGNE-FRANCHE-COMTE;U10-0400;L'Ognon;http://id.eaufrance.fr/CEA/U10-0400;NA;2021-01-19T00:00:00Z;2000-07-22T00:00:00Z;NA;NA;1;16;12;1;2;600000184,POH005,POH045,POH106,POH900,RIC063,RIC163,RIC313;NA;NA;NA;HAUTE-SAONE;TRUE
U1075010;La Lanterne à Émagny;U107501001;La Lanterne à Émagny;LIMNI;917394;6692410;26;5.877374913951292;47.296356486841674;1;NA;NA;NA;25217;EMAGNY;25;27;BOURGOGNE-FRANCHE-COMTE;U1070500;La Lanterne;http://id.eaufrance.fr/CEA/U1070500;NA;2021-05-12T00:00:00Z;1991-05-23T00:00:00Z;1992-02-14T00:00:00Z;NA;1;20;12;1;2;600000184;NA;NA;NA;DOUBS;FALSE
U1075210;Le ruisseau de Recologne à Recologne;U107521001;Le ruisseau de Recologne à Recologne;LIMNI;914775;6689891;26;5.841541285103131;47.27454779704553;1;NA;NA;NA;25482;RECOLOGNE;25;27;BOURGOGNE-FRANCHE-COMTE;U1070520;Ruisseau de Recologne;http://id.eaufrance.fr/CEA/U1070520;NA;2021-05-12T00:00:00Z;1991-06-06T00:00:00Z;1992-08-05T00:00:00Z;NA;1;20;12;1;2;600000184;NA;NA;NA;DOUBS;FALSE
U1075220;Le ruisseau de Recologne à Noironte;U107522001;Le ruisseau de Recologne à Noironte;LIMNI;917392;6689663;26;5.876024772679643;47.27164380182954;1;NA;NA;NA;25427;NOIRONTE;25;27;BOURGOGNE-FRANCHE-COMTE;U1070520;Ruisseau de Recologne;http://id.eaufrance.fr/CEA/U1070520;NA;2021-05-12T00:00:00Z;1996-01-18T00:00:00Z;1996-01-19T00:00:00Z;NA;1;20;12;1;2;NA;NA;NA;NA;DOUBS;FALSE
U1075410;Le ruisseau de Recologne à Franey;U107541001;Le ruisseau de Recologne à Franey;LIMNI;913244;6688533;26;5.820661434766032;47.262824301800144;1;NA;NA;NA;25257;FRANEY;25;27;BOURGOGNE-FRANCHE-COMTE;U1070540;Ruisseau de Recologne;http://id.eaufrance.fr/CEA/U1070540;NA;2021-05-12T00:00:00Z;1991-05-17T00:00:00Z;1992-08-28T00:00:00Z;NA;1;20;12;1;2;600000184;NA;NA;NA;DOUBS;FALSE
U1084010;L'Ognon à Pesmes;U108401001;L'Ognon à Pesmes;LIMNI;892304;6691197;26;5.545017366666844;47.29319678552749;1;Le 04/02/2008 : le producteur DIREN Rhône-Alpes/Bassin RMC est remplacé par la DIREN Franche-Comté.;185000;3;70408;PESMES;70;27;BOURGOGNE-FRANCHE-COMTE;U10-0400;L'Ognon;http://id.eaufrance.fr/CEA/U10-0400;NA;2020-12-22T00:00:00Z;1963-12-27T00:00:00Z;NA;NA;1;20;12;1;2;600000184,POH005,POH045,POH106,POH900,RIC014,RIC063,RIC113,RIC313;1963-12-27T00:00:00Z;2013-11-18T00:00:00Z;2020-12-22T00:00:00Z;HAUTE-SAONE;TRUE
U1109010;La Venelle à Selongey;U110901001;La Venelle à Selongey;LIMNI;864577;6722704;26;5.189832397847285;47.584173296834344;1;NA;291069;2;21599;SELONGEY;21;27;BOURGOGNE-FRANCHE-COMTE;U1100900;La Venelle;http://id.eaufrance.fr/CEA/U1100900;NA;2021-01-19T00:00:00Z;1970-02-01T00:00:00Z;NA;NA;1;20;12;1;2;BSH001,BSH052,BSH101,BSH152,POH005,POH045,POH106,POH900,RIC063,RIC313;1970-02-01T00:00:00Z;2013-11-18T00:00:00Z;2016-10-06T00:00:00Z;COTE-D'OR;TRUE
U1109011;La Venelle à Véronnes;U110901101;La Venelle à Véronnes;LIMNI;867974;6716797;26;5.232786534420401;47.530166985223865;2;Station installée sur la rive gauche à 30 m amont pont (voir position X, Y);NA;NA;21667;VERONNES;21;27;BOURGOGNE-FRANCHE-COMTE;U1100900;La Venelle;http://id.eaufrance.fr/CEA/U1100900;NA;2020-06-26T00:00:00Z;2004-09-08T00:00:00Z;NA;Site en constante évolution à l'aval de la station (dépôts et atterrissements);1;12;17;NA;NA;NA;NA;NA;NA;COTE-D'OR;TRUE
U1115020;La Bèze à Bèze [Ferme de Rome];U111502001;La Bèze à Bèze [Ferme de Rome];LIMNI;871597;6708794;26;5.277850721019211;47.45722501390149;1;NA;201259;2;21071;BEZE;21;27;BOURGOGNE-FRANCHE-COMTE;U1110500;La Bèze;http://id.eaufrance.fr/CEA/U1110500;NA;2021-01-19T00:00:00Z;1981-09-01T00:00:00Z;NA;NA;1;20;12;1;2;POH005,POH045,POH106,POH900,RIC063,RIC313;1981-09-01T00:00:00Z;2013-11-18T00:00:00Z;2016-10-06T00:00:00Z;COTE-D'OR;TRUE
U1115030;La Bèze à Bèze [grotte];U111503001;La Bèze à Bèze [grotte];LIMNI;870903;6710297;26;5.269216558961658;47.47092888356684;1;NA;207430;3;21071;BEZE;21;27;BOURGOGNE-FRANCHE-COMTE;U1110500;La Bèze;http://id.eaufrance.fr/CEA/U1110500;NA;2021-05-12T00:00:00Z;1997-01-01T00:00:00Z;2005-01-14T00:00:00Z;NA;1;20;12;1;2;NA;1997-11-27T00:00:00Z;2013-11-18T00:00:00Z;2013-11-18T00:00:00Z;COTE-D'OR;FALSE
U1115210;Le Pannecul à Noiron-sur-Bèze [Rente de l'Ile];U111521001;Le Pannecul à Noiron-sur-Bèze [Rente de l'Ile];LIMNI;872477;6707395;26;5.2889874947222;47.444407712152056;1;NA;200423;3;21459;NOIRON-SUR-BEZE;21;27;BOURGOGNE-FRANCHE-COMTE;U1110520;Pannecul;http://id.eaufrance.fr/CEA/U1110520;NA;2021-01-19T00:00:00Z;1976-08-01T00:00:00Z;NA;NA;1;20;12;1;2;BSH001,BSH052,BSH101,BSH152,POH005,POH045,POH106,POH900,RIC063,RIC313;1976-08-01T00:00:00Z;2013-11-18T00:00:00Z;2020-06-10T00:00:00Z;COTE-D'OR;TRUE
U1115211;La Bèze à Vonges [Pont SNCF];U111521101;La Bèze à Vonges [Pont SNCF] - Pont du moulin;LIMNI;881144;6691149;26;5.397396342603149;47.29590858064658;3;Vannage en aval;NA;NA;21713;VONGES;21;27;BOURGOGNE-FRANCHE-COMTE;U1110500;La Bèze;http://id.eaufrance.fr/CEA/U1110500;NA;2020-06-26T00:00:00Z;2003-05-13T00:00:00Z;2007-04-26T00:00:00Z;NA;1;12;17;NA;NA;NA;NA;NA;NA;COTE-D'OR;FALSE
U1115211;La Bèze à Vonges [Pont SNCF];U111521102;La Bèze à Vonges [Pont SNCF] - Pont SNCF;LIMNI;880955;6691475;26;5.395027333405234;47.29889363914656;3;Bras principal;NA;NA;21713;VONGES;21;27;BOURGOGNE-FRANCHE-COMTE;U1110500;La Bèze;http://id.eaufrance.fr/CEA/U1110500;NA;2020-06-26T00:00:00Z;2003-05-13T00:00:00Z;2008-12-09T00:00:00Z;NA;1;12;17;NA;NA;NA;NA;NA;NA;COTE-D'OR;FALSE
U1115212;La Bèze à Mirebeau-sur-Bèze;U111521201;La Bèze à Mirebeau-sur-Bèze;LIMNI;874770;6702278;26;5.31740868995973;47.39776246027549;2;Échelle installée sur rive gauche au droit aval passerelle (position X, Y);NA;NA;21416;MIREBEAU-SUR-BEZE;21;27;BOURGOGNE-FRANCHE-COMTE;U1110500;La Bèze;http://id.eaufrance.fr/CEA/U1110500;NA;2020-06-26T00:00:00Z;2013-12-19T00:00:00Z;NA;Végétation et vannage aval;1;16;17;NA;NA;NA;NA;NA;NA;COTE-D'OR;TRUE
U1115213;La Bèze à Saint-Léger-Triey;U111521301;La Bèze à Saint-Léger-Triey;LIMNI;879621;6693628;26;5.3782399073633265;47.31862979943227;3;NA;NA;NA;21556;SAINT-LEGER-TRIEY;21;27;BOURGOGNE-FRANCHE-COMTE;U1110500;La Bèze;http://id.eaufrance.fr/CEA/U1110500;NA;2020-06-26T00:00:00Z;2003-05-13T00:00:00Z;2008-06-08T00:00:00Z;Forte influence...;1;12;17;NA;NA;NA;NA;NA;NA;COTE-D'OR;FALSE
U1115214;L'Albane à Saint-Léger-Triey;U111521401;L'Albane à Saint-Léger-Triey;LIMNI;879621;6693628;26;5.3782399073633265;47.31862979943227;2;Échelle installée sur rive droite droit aval pont (position X, Y);NA;NA;21556;SAINT-LEGER-TRIEY;21;27;BOURGOGNE-FRANCHE-COMTE;U1110560;L'Albane;http://id.eaufrance.fr/CEA/U1110560;NA;2020-06-26T00:00:00Z;2010-12-15T00:00:00Z;NA;Vannages en aval;1;12;17;NA;NA;NA;NA;NA;NA;COTE-D'OR;TRUE
U1120010;La Saône à Auxonne;U112001001;La Saône à Auxonne;LIMNI;880102;6679402;26;5.3789316699259935;47.190487023649275;1;Le 01/02/2008 : le producteur DIREN Rhône-Alpes/Bassin RMC est remplacé par DIREN Bourgogne.;178000;3;21038;AUXONNE;21;27;BOURGOGNE-FRANCHE-COMTE;U---0000;La Saône;http://id.eaufrance.fr/CEA/U---0000;NA;2021-01-19T00:00:00Z;1991-06-01T00:00:00Z;NA;NA;1;12;12;1;2;POH005,POH045,POH106,POH900,RIC014,RIC063,RIC113,RIC313;1991-06-01T00:00:00Z;2013-11-18T00:00:00Z;2014-09-11T00:00:00Z;COTE-D'OR;TRUE
U1204010;La Tille à Crécey-sur-Tille;U120401001;La Tille à Crécey-sur-Tille;LIMNI;859842;6719081;26;5.125562873413072;47.5527382729803;1;NA;273238;3;21211;CRECEY-SUR-TILLE;21;27;BOURGOGNE-FRANCHE-COMTE;U12-0400;La Tille;http://id.eaufrance.fr/CEA/U12-0400;NA;2021-01-19T00:00:00Z;1970-12-01T00:00:00Z;NA;NA;1;20;12;1;2;POH005,POH045,POH106,POH900,RIC063,RIC313;1970-12-01T00:00:00Z;2013-11-18T00:00:00Z;2014-09-22T00:00:00Z;COTE-D'OR;TRUE
U1204012;La Tille à Marey-sur-Tille;U120401201;La Tille à Marey-sur-Tille;LIMNI;855915;6724967;26;5.075423134334762;47.60664105255427;1;"Échelle installée sur rive droite aval pont (pont SNCF ; position X, Y)";NA;NA;21385;MAREY-SUR-TILLE;21;27;BOURGOGNE-FRANCHE-COMTE;U12-0400;La Tille;http://id.eaufrance.fr/CEA/U12-0400;NA;2020-06-26T00:00:00Z;2001-10-30T00:00:00Z;NA;Station dispose d'un seuil en enrochement;1;20;17;NA;NA;NA;NA;NA;NA;COTE-D'OR;TRUE
U1215010;L'Ignon à Is-sur-Tille;U121501001;L'Ignon à Is-sur-Tille;LIMNI;858200;6715211;26;5.1023682299521855;47.51831082092469;1;NA;276000;2;21317;IS-SUR-TILLE;21;27;BOURGOGNE-FRANCHE-COMTE;U1210500;L'Ignon;http://id.eaufrance.fr/CEA/U1210500;NA;2021-05-12T00:00:00Z;1966-08-01T00:00:00Z;1970-01-01T00:00:00Z;NA;1;20;12;1;2;NA;1966-08-01T00:00:00Z;2013-11-18T00:00:00Z;2013-11-18T00:00:00Z;COTE-D'OR;FALSE
U1215020;L'Ignon à Diénay;U121502001;L'Ignon à Diénay;LIMNI;854592;6714643;26;5.054245970072997;47.514054439621205;1;NA;NA;NA;21230;DIENAY;21;27;BOURGOGNE-FRANCHE-COMTE;U1210500;L'Ignon;http://id.eaufrance.fr/CEA/U1210500;NA;2021-05-12T00:00:00Z;1972-05-01T00:00:00Z;1987-01-01T00:00:00Z;NA;1;20;12;1;2;NA;NA;NA;NA;COTE-D'OR;FALSE
U1215030;L'Ignon à Villecomte;U121503001;L'Ignon à Villecomte;LIMNI;852890;6714657;26;5.031644312541135;47.51457675510064;1;NA;291349;3;21692;VILLECOMTE;21;27;BOURGOGNE-FRANCHE-COMTE;U1210500;L'Ignon;http://id.eaufrance.fr/CEA/U1210500;NA;2021-03-16T00:00:00Z;1985-10-01T00:00:00Z;NA;NA;1;20;12;1;2;POH045,POH106,POH900,RIC063,RIC313;1985-10-01T00:00:00Z;2013-11-18T00:00:00Z;2021-03-16T00:00:00Z;COTE-D'OR;TRUE
U1215040;L'Ignon à Poncey-sur-l'Ignon [Village];U121504001;L'Ignon à Poncey-sur-l'Ignon [Village];LIMNI;832656;6711874;26;4.7620403634105575;47.493907469678355;2;NA;393648;3;21494;PONCEY-SUR-L'IGNON;21;27;BOURGOGNE-FRANCHE-COMTE;U1210500;L'Ignon;http://id.eaufrance.fr/CEA/U1210500;NA;2020-06-26T00:00:00Z;2008-07-08T00:00:00Z;NA;NA;1;20;12;1;2;POH005,POH045,POH106,POH900,RIC063,RIC313;2008-07-08T00:00:00Z;2013-11-18T00:00:00Z;2016-10-06T00:00:00Z;COTE-D'OR;TRUE
U1215041;L'Ignon à Lamargelle;U121504101;L'Ignon à Lamargelle;LIMNI;836786;6714332;26;4.817630579228757;47.51518505985642;1;Échelle installée sur rive gauche amont pont (voir position X, Y);NA;NA;21338;LAMARGELLE;21;27;BOURGOGNE-FRANCHE-COMTE;U1210500;L'Ignon;http://id.eaufrance.fr/CEA/U1210500;NA;2020-06-26T00:00:00Z;2001-10-30T00:00:00Z;NA;Station avec seuil en enrochement;1;20;17;NA;NA;NA;NA;NA;NA;COTE-D'OR;TRUE
U1224010;La Tille à Arceau [Arcelot];U122401001;La Tille à Arceau [Arcelot];LIMNI;865173;6699254;26;5.189110513710894;47.373016234046375;1;NA;222787;2;21016;ARCEAU;21;27;BOURGOGNE-FRANCHE-COMTE;U12-0400;La Tille;http://id.eaufrance.fr/CEA/U12-0400;NA;2021-01-19T00:00:00Z;1966-07-01T00:00:00Z;NA;NA;1;20;12;1;2;BSH001,BSH052,BSH101,BSH152,POH005,POH045,POH106,POH900,RIC063,RIC313;1966-07-01T00:00:00Z;2013-11-18T00:00:00Z;2016-10-06T00:00:00Z;COTE-D'OR;TRUE
U1224020;La Tille à Cessey-sur-Tille;U122402001;La Tille à Cessey-sur-Tille;LIMNI;867602;6688991;26;5.217467506921889;47.28005155742837;1;Le 01/02/2008 : le producteur DIREN Rhône-Alpes/Bassin RMC est remplacé par DIREN Bourgogne.;200000;3;21126;CESSEY-SUR-TILLE;21;27;BOURGOGNE-FRANCHE-COMTE;U12-0400;La Tille;http://id.eaufrance.fr/CEA/U12-0400;NA;2021-01-19T00:00:00Z;1962-12-21T00:00:00Z;NA;NA;1;20;12;1;2;POH005,POH045,POH106,POH900,RIC063,RIC313;1962-12-21T00:00:00Z;2013-11-18T00:00:00Z;2014-09-11T00:00:00Z;COTE-D'OR;TRUE
U1224022;La Tille à Spoy;U122402201;La Tille à Spoy;LIMNI;865176;6707484;26;5.19217766947101;47.44707319214481;1;Échelle installée sur rive droite amont pont (position X, Y);NA;NA;21614;SPOY;21;27;BOURGOGNE-FRANCHE-COMTE;U12-0400;La Tille;http://id.eaufrance.fr/CEA/U12-0400;NA;2020-06-26T00:00:00Z;2004-09-09T00:00:00Z;NA;influence faible en étiage (vannage amont);1;16;17;NA;NA;NA;NA;NA;NA;COTE-D'OR;TRUE
U1235010;La Norges à Norges-la-Ville;U123501001;La Norges à Norges-la-Ville;LIMNI;857403;6702200;26;5.087212226680643;47.4014203741792;1;NA;254000;2;21462;NORGES-LA-VILLE;21;27;BOURGOGNE-FRANCHE-COMTE;U1230500;La Norges;http://id.eaufrance.fr/CEA/U1230500;NA;2021-05-12T00:00:00Z;1970-12-01T00:00:00Z;1987-01-01T00:00:00Z;NA;1;20;12;1;2;NA;1970-12-01T00:00:00Z;2013-11-18T00:00:00Z;2013-11-18T00:00:00Z;COTE-D'OR;FALSE
U1235020;La Norges à Genlis;U123502001;La Norges à Genlis;LIMNI;867996;6684349;26;5.220950619999156;47.23817855903022;1;Le 01/02/2008 : le producteur DIREN Rhône-Alpes/Bassin RMC est remplacé par DIREN Bourgogne.;195000;3;21292;GENLIS;21;27;BOURGOGNE-FRANCHE-COMTE;U1230500;La Norges;http://id.eaufrance.fr/CEA/U1230500;NA;2021-01-19T00:00:00Z;1962-12-01T00:00:00Z;NA;NA;1;20;12;1;2;POH005,POH045,POH106,POH900,RIC063,RIC313;1962-12-01T00:00:00Z;2013-11-18T00:00:00Z;2014-09-11T00:00:00Z;COTE-D'OR;TRUE
U1235022;La Norges à Saint-Julien;U123502201;La Norges à Saint-Julien;LIMNI;862019;6702265;26;5.148415479446751;47.40089094792873;1;Échelle installée sur rive droite amont pont;NA;NA;21555;SAINT-JULIEN;21;27;BOURGOGNE-FRANCHE-COMTE;U1230500;La Norges;http://id.eaufrance.fr/CEA/U1230500;NA;2020-06-26T00:00:00Z;2001-01-28T00:00:00Z;NA;Influence du vannage automatique (hydroélectrique!) en amont, petites variations moyennées;1;20;17;NA;NA;NA;NA;NA;NA;COTE-D'OR;TRUE
U1244010;La Tille [partielle] aux Maillys;U124401001;La Tille [partielle] aux Maillys;LIMNI;876775;6674903;26;5.333256346220868;47.150894793335475;1;NA;180000;2;21371;MAILLYS;21;27;BOURGOGNE-FRANCHE-COMTE;U12-0400;La Tille;http://id.eaufrance.fr/CEA/U12-0400;NA;2021-05-12T00:00:00Z;1966-07-01T00:00:00Z;1993-01-01T00:00:00Z;NA;1;20;12;1;2;NA;1966-07-01T00:00:00Z;2013-11-18T00:00:00Z;2013-11-18T00:00:00Z;COTE-D'OR;FALSE
U1244020;[bief] aux Maillys;U124402001;[bief] aux Maillys;LIMNI;877074;6675889;26;5.337585707091759;47.15968817481404;1;NA;NA;NA;21371;MAILLYS;21;27;BOURGOGNE-FRANCHE-COMTE;00000000;NA;http://id.eaufrance.fr/CEA/00000000;NA;2021-05-12T00:00:00Z;1966-07-01T00:00:00Z;1993-01-01T00:00:00Z;NA;1;20;12;1;2;NA;NA;NA;NA;COTE-D'OR;FALSE
U1244040;La Tille à Champdôtre;U124404001;La Tille à Champdôtre;LIMNI;874132;6677989;26;5.299577086447571;47.17936364450152;1;Reconstitution des débits du 31/10/2000 au 18/06/2001 dispositif de mesure HS.  Maxi atteint en mars 2001 h=228.5 cm pour q=92.0 m3/s-nivellement laisse de crue. Cette station remplace le site virtuel U1244030. Passage horodatage station de Champdotre (U1244040) en TU le 30/01/2008.;184822;3;21138;CHAMPDOTRE;21;27;BOURGOGNE-FRANCHE-COMTE;U12-0400;La Tille;http://id.eaufrance.fr/CEA/U12-0400;NA;2021-01-19T00:00:00Z;1993-03-01T00:00:00Z;NA;NA;1;20;12;1;2;POH005,POH045,POH106,POH900,RIC063,RIC313;2010-03-04T00:00:00Z;2013-11-18T00:00:00Z;2016-10-06T00:00:00Z;COTE-D'OR;TRUE
U1304010;L'Ouche à Lusigny-sur-Ouche;U130401001;L'Ouche à Lusigny-sur-Ouche;LIMNI;826931;6666491;26;4.673247983192957;47.086568474068976;3;Le 15/04/2010 : mise à jour du bassin versant.;370000;2;21360;LUSIGNY-SUR-OUCHE;21;27;BOURGOGNE-FRANCHE-COMTE;U13-0400;L'Ouche;http://id.eaufrance.fr/CEA/U13-0400;NA;2021-05-12T00:00:00Z;1969-11-01T00:00:00Z;1983-09-01T00:00:00Z;NA;1;20;12;1;2;NA;1969-11-01T00:00:00Z;2013-11-18T00:00:00Z;2013-11-18T00:00:00Z;COTE-D'OR;FALSE
U1305610;Le canal de Bourgogne à Crugey;U130561001;Le canal de Bourgogne à Crugey;LIMNI;828244;6675960;26;4.693227368325159;47.17154649015677;2;Le 25/03/2003 à 12h15 : changement d'appareil. Passage horodatage en T.U. le 30/01/2008.;325731;3;21214;CRUGEY;21;27;BOURGOGNE-FRANCHE-COMTE;----0172;Canal de Bourgogne;http://id.eaufrance.fr/CEA/----0172;NA;2021-01-19T00:00:00Z;1996-01-01T00:00:00Z;NA;NA;1;20;12;1;2;POH005,POH045,POH106,POH900,RIC063,RIC313;1996-01-01T00:00:00Z;2013-11-18T00:00:00Z;2016-10-06T00:00:00Z;COTE-D'OR;TRUE
U1314010;L'Ouche à la Bussière-sur-Ouche;U131401001;L'Ouche à la Bussière-sur-Ouche;LIMNI;830617;6680288;26;4.725797333657327;47.2100389490824;1;Le 13/06/2006 : mise en place CPL et radar Cuzoé. Passage  horodatage en T.U. le 30/01/2008. Du 28/11/2009 à 15h50 au 30/11/2009 à 10h00 : appareil en panne hauteurs reconstituées = débits approximatifs.;310527;3;21120;BUSSIERE-SUR-OUCHE;21;27;BOURGOGNE-FRANCHE-COMTE;U13-0400;L'Ouche;http://id.eaufrance.fr/CEA/U13-0400;NA;2021-01-19T00:00:00Z;1984-12-01T00:00:00Z;NA;NA;1;20;12;1;2;BSH001,BSH052,BSH101,BSH152,POH005,POH045,POH106,POH900,RIC063,RIC113,RIC313;1984-12-01T00:00:00Z;2013-11-18T00:00:00Z;2014-10-27T00:00:00Z;COTE-D'OR;TRUE
U1314020;L'Ouche à Sainte-Marie-sur-Ouche [Pont de Pany];U131402001;L'Ouche à Sainte-Marie-sur-Ouche [Pont de Pany];LIMNI;837021.3592266;6690070.4803876;26;4.813354649571956;47.29679231639496;1;Le 01/02/2008 : le producteur DIREN Rhône-Alpes/Bassin RMC est remplacé par DIREN Bourgogne.;276850;3;21559;SAINTE-MARIE-SUR-OUCHE;21;27;BOURGOGNE-FRANCHE-COMTE;U13-0400;L'Ouche;http://id.eaufrance.fr/CEA/U13-0400;NA;2021-06-30T00:00:00Z;1985-10-10T00:00:00Z;NA;NA;1;12;12;1;2;POH005,POH045,POH106,POH900,RIC063,RIC113,RIC313;1985-10-10T00:00:00Z;2013-11-18T00:00:00Z;2021-06-30T00:00:00Z;COTE-D'OR;TRUE
U1314030;Le ru d'Antheuil à Antheuil;U131403001;Le ru d'Antheuil à Antheuil;LIMNI;832147;6675996;26;4.7447533189510755;47.17110562921485;2;Bassin versant karstique, impluvium inconnu.;445264;3;21014;ANTHEUIL;21;27;BOURGOGNE-FRANCHE-COMTE;U1311000;Rivière d'Antheuil;http://id.eaufrance.fr/CEA/U1311000;NA;2020-06-26T00:00:00Z;1996-05-07T00:00:00Z;2001-10-15T00:00:00Z;NA;1;20;12;1;2;NA;1996-05-08T00:00:00Z;2013-11-18T00:00:00Z;2020-06-16T00:00:00Z;COTE-D'OR;FALSE
U1324010;L'Ouche à Plombières-lès-Dijon;U132401001;L'Ouche à Plombières-lès-Dijon;LIMNI;849583;6694344;26;4.980948456965778;47.3325362236584;1;Le 01/02/2008 : le producteur DIREN Rhône-Alpes/Bassin RMC est remplacé par DIREN Bourgogne.;242890;3;21485;PLOMBIERES-LES-DIJON;21;27;BOURGOGNE-FRANCHE-COMTE;U13-0400;L'Ouche;http://id.eaufrance.fr/CEA/U13-0400;NA;2021-01-19T00:00:00Z;1962-12-19T00:00:00Z;NA;NA;1;20;12;1;2;BSH001,BSH052,BSH101,BSH152,POH005,POH045,POH106,POH900,RIC014,RIC063,RIC113,RIC313;1962-12-19T00:00:00Z;2013-11-18T00:00:00Z;2013-11-18T00:00:00Z;COTE-D'OR;TRUE
U1324020;L'Ouche à Dijon [Trois-Ponts];U132402001;L'Ouche à Dijon [Trois-Ponts];LIMNI;853860;6691826;26;5.036704662938291;47.30889629592179;1;05/02/08 : le producteur DIREN Rhone-Alpes est remplacé par DIREN Bourgogne;NA;NA;21231;DIJON;21;27;BOURGOGNE-FRANCHE-COMTE;U13-0400;L'Ouche;http://id.eaufrance.fr/CEA/U13-0400;NA;2020-06-26T00:00:00Z;1962-12-01T00:00:00Z;1972-01-01T00:00:00Z;NA;1;20;0;1;2;NA;NA;NA;NA;COTE-D'OR;FALSE
U1329010;Le Suzon à Val-Suzon;U132901001;Le Suzon à Val-Suzon;LIMNI;844872;6703952;26;4.921681005664285;47.42004994263561;1;NA;339282;3;21651;VAL-SUZON;21;27;BOURGOGNE-FRANCHE-COMTE;U1320900;Le Suzon;http://id.eaufrance.fr/CEA/U1320900;NA;2021-05-12T00:00:00Z;1988-04-01T00:00:00Z;2002-05-30T00:00:00Z;NA;1;20;12;1;2;NA;1988-04-01T00:00:00Z;2013-11-18T00:00:00Z;2013-11-18T00:00:00Z;COTE-D'OR;FALSE
U1329020;Le Suzon à Ahuy;U132902001;Le Suzon à Ahuy;LIMNI;853282;6698653;26;5.031381210652957;47.3704682702106;1;NA;266429;3;21003;AHUY;21;27;BOURGOGNE-FRANCHE-COMTE;U1320900;Le Suzon;http://id.eaufrance.fr/CEA/U1320900;NA;2021-05-12T00:00:00Z;1990-09-01T00:00:00Z;2002-05-30T00:00:00Z;NA;1;20;12;1;2;NA;1990-09-01T00:00:00Z;2013-11-18T00:00:00Z;2013-11-18T00:00:00Z;COTE-D'OR;FALSE
U1329030;Le Suzon à Val-Suzon [Village];U132903001;Le Suzon à Val-Suzon [Village];LIMNI;842775;6702504;26;4.893415233276414;47.40747489567743;2;Le 22/11/2001 : remplacement CR2M + ultrasons par Nimbus OTT Log - OTT-Com.;358269;3;21651;VAL-SUZON;21;27;BOURGOGNE-FRANCHE-COMTE;U1320900;Le Suzon;http://id.eaufrance.fr/CEA/U1320900;NA;2021-01-19T00:00:00Z;1999-09-01T00:00:00Z;NA;NA;1;20;12;1;2;POH005,POH045,POH106,POH900,RIC063,RIC313;1999-09-01T00:00:00Z;2013-11-18T00:00:00Z;2016-10-06T00:00:00Z;COTE-D'OR;TRUE
U1329033;L'Ouche à Longvic;U132903301;L'Ouche à Longvic;LIMNI;857309;6689463;26;5.081515119188327;47.286821259215486;1;NA;NA;NA;21355;LONGVIC;21;27;BOURGOGNE-FRANCHE-COMTE;U13-0400;L'Ouche;http://id.eaufrance.fr/CEA/U13-0400;NA;2021-01-19T00:00:00Z;1962-12-01T00:00:00Z;1976-01-01T00:00:00Z;NA;1;12;0;1;2;NA;NA;NA;NA;COTE-D'OR;FALSE
U1334010;L'Ouche à Trouhans;U133401001;L'Ouche à Trouhans;LIMNI;872659;6675008;26;5.2789997014201475;47.15292177775271;1;Le 25/02/2009, mise en place CPL 2449 RADAR BEGA PLUS61 0-5,00M 16201274- GSM-POTEAU GIROD. Passage horodatage en T.U. Nivellement échelle le 02/03/2012 Alt. IGN69 183,227m;183070;2;21645;TROUHANS;21;27;BOURGOGNE-FRANCHE-COMTE;U13-0400;L'Ouche;http://id.eaufrance.fr/CEA/U13-0400;NA;2021-01-19T00:00:00Z;1967-07-01T00:00:00Z;NA;NA;1;12;12;1;2;POH005,POH045,POH106,POH900,RIC063,RIC313;1967-07-01T00:00:00Z;2013-11-18T00:00:00Z;2014-09-11T00:00:00Z;COTE-D'OR;TRUE
U1334020;L'Ouche à Crimolois;U133402001;L'Ouche à Crimolois;LIMNI;860084;6687266;26;5.117437141497254;47.26638564367362;3;Le 01/02/2008 : le producteur DIREN Rhône-Alpes/Bassin RMC est remplacé par DIREN Bourgogne.;210000;3;21213;CRIMOLOIS;21;27;BOURGOGNE-FRANCHE-COMTE;U13-0400;L'Ouche;http://id.eaufrance.fr/CEA/U13-0400;NA;2021-01-19T00:00:00Z;1962-12-01T00:00:00Z;NA;NA;1;20;12;1;2;POH005,POH045,POH106,POH900,RIC063,RIC163,RIC313;1962-12-01T00:00:00Z;2013-11-18T00:00:00Z;2014-09-11T00:00:00Z;COTE-D'OR;TRUE
U1415010;La Vouge à Vougeot;U141501001;La Vouge à Vougeot;LIMNI;848487;6677223;26;4.960810796947528;47.17869768203765;1;NA;237000;3;21716;VOUGEOT;21;27;BOURGOGNE-FRANCHE-COMTE;U1410500;La Vouge;http://id.eaufrance.fr/CEA/U1410500;NA;2021-05-12T00:00:00Z;1995-06-01T00:00:00Z;1997-03-03T00:00:00Z;NA;1;12;12;1;2;NA;1995-06-01T00:00:00Z;2013-11-18T00:00:00Z;2013-11-18T00:00:00Z;COTE-D'OR;FALSE
U1415020;La Vouge à Saint-Bernard;U141502001;La Vouge à Saint-Bernard;LIMNI;852686;6674040;26;5.015163512339176;47.14909895205746;1;Le 05/08/2010 : le Syndicat du bassin versant de la Vouge remplace en tant que producteur principal la DIREN Bourgogne (qui devient producteur associé). ;202000;3;21542;SAINT-BERNARD;21;27;BOURGOGNE-FRANCHE-COMTE;U1410500;La Vouge;http://id.eaufrance.fr/CEA/U1410500;NA;2021-05-12T00:00:00Z;1995-06-01T00:00:00Z;2003-12-31T00:00:00Z;NA;1;20;12;1;2;NA;1995-06-01T00:00:00Z;2013-11-18T00:00:00Z;2013-11-18T00:00:00Z;COTE-D'OR;FALSE
U1415030;La Vouge à Saint-Nicolas-lès-Cîteaux [Abbaye-de-Cîteaux];U141503001;La Vouge à Saint-Nicolas-lès-Cîteaux [Abbaye-de-Cîteaux];LIMNI;859075;6671520;26;5.098563474982729;47.12492101734548;1;Le 05/10/1999 à 09h10 : déplacement de la station 100 m à l'aval (au pont). Nivellement échelle le 20/01/2011 Alt. Zéro 191,585 m.;191000;3;21564;SAINT-NICOLAS-LES-CITEAUX;21;27;BOURGOGNE-FRANCHE-COMTE;U1410500;La Vouge;http://id.eaufrance.fr/CEA/U1410500;NA;2021-04-22T00:00:00Z;1991-12-31T00:00:00Z;NA;NA;1;20;12;1;2;POH045,POH106,POH900,RIC063,RIC313;1995-06-01T00:00:00Z;2013-11-18T00:00:00Z;2014-09-11T00:00:00Z;COTE-D'OR;TRUE
U1415040;La Vouge à Aubigny-en-Plaine;U141504001;La Vouge à Aubigny-en-Plaine;LIMNI;865178;6672700;26;5.179465453630127;47.134052422747;1;Le 05/10/1999 à 09h10 : déplacement de la station 100 m à l'aval (au pont).;183982;3;21031;AUBIGNY-EN-PLAINE;21;27;BOURGOGNE-FRANCHE-COMTE;U1410500;La Vouge;http://id.eaufrance.fr/CEA/U1410500;NA;2020-06-26T00:00:00Z;1992-08-31T00:00:00Z;NA;NA;1;12;12;1;2;POH005,POH045,POH106,POH900,RIC063,RIC313;2010-03-04T00:00:00Z;2013-11-18T00:00:00Z;2014-09-19T00:00:00Z;COTE-D'OR;TRUE
U1415410;La Sansfond à Saulon-la-Rue;U141541001;La Sansfond à Saulon-la-Rue;LIMNI;856643;6682240;26;5.070201485620683;47.22197580745539;1;La Sansfond est l'exutoire d'une nappe. Le bassin versant topographique n'est pas superposable à l'aquifère. De 1981 à 1995, les débits ont été reconstitués à partir des jaugeages hebdomadaires. Du 07/10/2008 au 12/11/2008, absence de hauteurs-temps (station vandalisée). Le 08/10/2009, construction d'un seuil de contrôle 10 m en aval de l'échelle.;210049;3;21586;SAULON-LA-RUE;21;27;BOURGOGNE-FRANCHE-COMTE;U1410540;la sans fond;http://id.eaufrance.fr/CEA/U1410540;NA;2021-03-16T00:00:00Z;1980-12-31T00:00:00Z;NA;NA;1;20;12;1;2;POH005,POH045,POH900,RIC063,RIC313;1981-01-01T00:00:00Z;2013-11-18T00:00:00Z;2016-10-06T00:00:00Z;COTE-D'OR;TRUE
U1415510;[Le ru du Pâquier] à Saulon-la-Rue [Paquier de Potu];U141551001;[Le ru du Pâquier] à Saulon-la-Rue [Paquier de Potu];LIMNI;854486;6683669;26;5.042195595199084;47.23534185342088;1;Station destiné à l'évaluation du ruisselement pluvial. Le 05/08/2010 : le Syndicat du bassin versant de la Vouge remplace en tant que producteur principal la DIREN Bourgogne (qui devient producteur associé) .;220000;0;21586;SAULON-LA-RUE;21;27;BOURGOGNE-FRANCHE-COMTE;00000000;NA;http://id.eaufrance.fr/CEA/00000000;NA;2021-05-12T00:00:00Z;1999-06-01T00:00:00Z;2003-11-18T00:00:00Z;NA;1;20;12;1;2;NA;1999-06-01T00:00:00Z;2013-11-18T00:00:00Z;2013-11-18T00:00:00Z;COTE-D'OR;FALSE
U1415810;Le Chairon à Noiron-sous-Gevrey;U141581001;Le Chairon à Noiron-sous-Gevrey;LIMNI;857708;6679729;26;5.083394681758914;47.19912565186851;1;Le 05/08/2010 : le Syndicat du bassin versant de la Vouge remplace en tant que producteur principal la DIREN Bourgogne (qui devient producteur associé). ;199000;3;21458;NOIRON-SOUS-GEVREY;21;27;BOURGOGNE-FRANCHE-COMTE;U1410560;Le Chairon;http://id.eaufrance.fr/CEA/U1410560;NA;2021-05-12T00:00:00Z;1995-06-01T00:00:00Z;2003-12-31T00:00:00Z;NA;1;20;12;1;2;NA;1995-06-01T00:00:00Z;2013-11-18T00:00:00Z;2014-06-13T00:00:00Z;COTE-D'OR;FALSE
U1416010;La Varaude à Izeure [Tarsul];U141601001;La Varaude à Izeure [Tarsul];LIMNI;860431;6677611;26;5.118599104968076;47.17941228691914;1;Le 05/05/2010 : nouvelle station CPL + Sonde VEGA gérée par le syndicat du bassin versant de la Vouge. Le 05/08/2010 : le Syndicat du bassin versant de la Vouge remplace en tant que producteur principal la DIREN Bourgogne (qui devient producteur associé). Le 14/03/2013 : nivellement échelle 193,121 m et topo.;193000;3;21319;IZEURE;21;27;BOURGOGNE-FRANCHE-COMTE;U1410600;La Varaude;http://id.eaufrance.fr/CEA/U1410600;NA;2021-05-12T00:00:00Z;1995-05-01T00:00:00Z;NA;NA;1;20;12;1;2;NA;1995-05-01T00:00:00Z;2013-11-18T00:00:00Z;2013-11-18T00:00:00Z;COTE-D'OR;TRUE
U1416410;La Biètre à Brazey-en-Plaine;U141641001;La Biètre à Brazey-en-Plaine;LIMNI;867961.2630128;6672349.1702266;26;5.216040627495737;47.13019779355287;1;Le 28/01/2009 à 11h45 : nouvelle station CPL + SONDE VEGA gérée par le syndicat du bassin versant de la Vouge. Le 05/08/2010 : le Syndicat du bassin versant de la Vouge remplace en tant que producteur principal la DIREN Bourgogne (qui devient producteur associé) Le 14/03/2013 : nivellement échelle 182,114 m et topo.;186000;3;21103;BRAZEY-EN-PLAINE;21;27;BOURGOGNE-FRANCHE-COMTE;U1410640;La Biètre;http://id.eaufrance.fr/CEA/U1410640;NA;2021-10-04T00:00:00Z;1995-06-01T00:00:00Z;NA;NA;1;20;12;1;2;NA;1995-06-01T00:00:00Z;2013-11-18T00:00:00Z;2021-10-04T00:00:00Z;COTE-D'OR;TRUE
U1420010;La Saône à Pagny-la-Ville [Lechatelet];U142001001;La Saône à Pagny-la-Ville [Lechatelet];LIMNI;863090;6665166;26;5.149223679033585;47.066763843041834;1;Les débits naturels sont calculés en tenant compte des éclusées de l'écluse de Seurre. Le 01/02/2008 : le producteur DIREN Rhône-Alpes/Bassin RMC est remplacé par DIREN Bourgogne. Nivellement échelle le 03/02/2011, alt=175,185 m.;174900;3;21474;PAGNY-LA-VILLE;21;27;BOURGOGNE-FRANCHE-COMTE;U---0000;La Saône;http://id.eaufrance.fr/CEA/U---0000;NA;2021-01-19T00:00:00Z;1964-12-31T00:00:00Z;NA;NA;1;20;12;1;2;BSH001,BSH052,BSH101,BSH152,POH005,POH045,POH106,POH900,RIC063,RIC113,RIC313;1982-01-01T00:00:00Z;2013-11-18T00:00:00Z;2014-09-11T00:00:00Z;COTE-D'OR;TRUE
U2002010;Le Doubs à Mouthe;U200201001;Le Doubs à Mouthe;LIMNI;945102;6627737;26;6.208958854538064;46.70490204607621;1;NA;NA;NA;25413;MOUTHE;25;27;BOURGOGNE-FRANCHE-COMTE;U2--0200;Le Doubs;http://id.eaufrance.fr/CEA/U2--0200;NA;2021-01-19T00:00:00Z;1979-10-23T00:00:00Z;NA;NA;1;20;12;1;2;BSH001,BSH052,BSH101,BSH152,POH005,POH045,POH106,POH900,RIC063,RIC313;NA;NA;NA;DOUBS;TRUE
U2012010;Le Doubs à Labergement-Sainte-Marie;U201201001;Le Doubs à Labergement-Sainte-Marie;LIMNI;950204;6635529;26;6.279915100083892;46.77311541776283;1;Bassin versant incertain du point de vue géologique.;851000;3;25320;LABERGEMENT-SAINTE-MARIE;25;27;BOURGOGNE-FRANCHE-COMTE;U2--0200;Le Doubs;http://id.eaufrance.fr/CEA/U2--0200;NA;2021-01-19T00:00:00Z;1959-02-19T00:00:00Z;NA;NA;1;20;12;1;2;600000184,BSH001,BSH052,BSH101,BSH152,POH005,POH045,POH106,POH900,RIC063,RIC313;1959-02-19T00:00:00Z;2013-11-18T00:00:00Z;2013-11-18T00:00:00Z;DOUBS;TRUE
U2012020;Le Doubs à Oye-et-Pallet;U201202001;Le Doubs à Oye-et-Pallet;LIMNI;953978;6644048;26;6.334042548760607;46.84832960231083;3;NA;NA;NA;25442;OYE-ET-PALLET;25;27;BOURGOGNE-FRANCHE-COMTE;U2--0200;Le Doubs;http://id.eaufrance.fr/CEA/U2--0200;NA;2021-01-19T00:00:00Z;1982-11-09T00:00:00Z;NA;NA;1;20;12;1;2;600000184,POH005,POH045,POH106,POH900,RIC063,RIC313;NA;NA;NA;DOUBS;TRUE
U2012030;Le Doubs à Saint-Point-Lac;U201203001;Le Doubs à Saint-Point-Lac;LIMNI;951875;6639861;26;6.3041696184105795;46.81145948339039;1;NA;NA;NA;25525;SAINT-POINT-LAC;25;27;BOURGOGNE-FRANCHE-COMTE;U2--0200;Le Doubs;http://id.eaufrance.fr/CEA/U2--0200;NA;2021-10-07T00:00:00Z;1994-06-30T00:00:00Z;NA;NA;1;16;NA;1;2;POH005,POH045,POH106,POH900,RIC063,RIC313;NA;NA;NA;DOUBS;TRUE
U2015010;Le Bief Rouge à Métabief;U201501001;Le Bief Rouge à Métabief;LIMNI;956328;6635904;26;6.360307737227151;46.77417113807704;1;NA;NA;NA;25380;METABIEF;25;27;BOURGOGNE-FRANCHE-COMTE;U2010500;Bief Rouge;http://id.eaufrance.fr/CEA/U2010500;NA;2021-05-12T00:00:00Z;1980-03-06T00:00:00Z;1981-07-31T00:00:00Z;NA;1;20;12;1;2;600000184;NA;NA;NA;DOUBS;FALSE
U2015030;Le Bief Rouge à Longevilles-Mont-d'Or;U201503001;Le Bief Rouge à Longevilles-Mont-d'Or;LIMNI;953161;6634028;26;6.317806678867409;46.758500215644425;1;NA;NA;NA;25348;LONGEVILLES-MONT-D'OR;25;27;BOURGOGNE-FRANCHE-COMTE;U2010500;Bief Rouge;http://id.eaufrance.fr/CEA/U2010500;NA;2021-10-07T00:00:00Z;1986-03-19T00:00:00Z;1987-08-18T00:00:00Z;NA;1;20;12;1;2;600000184,POH005,POH045,POH106,POH900,RIC063,RIC313;NA;NA;NA;DOUBS;FALSE
U2015030;Le Bief Rouge à Longevilles-Mont-d'Or;U201503002;Le Bief Rouge à Longevilles-Mont-d'Or;LIMNI;953155;6634007;26;6.317716581485309;46.758313567527445;1;NA;NA;NA;25348;LONGEVILLES-MONT-D'OR;25;27;BOURGOGNE-FRANCHE-COMTE;U2010500;Bief Rouge;http://id.eaufrance.fr/CEA/U2010500;NA;2021-10-07T00:00:00Z;1997-04-24T00:00:00Z;NA;NA;1;20;12;1;2;600000184,POH005,POH045,POH106,POH900,RIC063,RIC313;NA;NA;NA;DOUBS;TRUE
U2015210;La Taverne à Remoray-Boujeons;U201521001;La Taverne à Remoray-Boujeons;LIMNI;947758;6633810;26;6.246960801046759;46.75856072682581;1;NA;NA;NA;25486;REMORAY-BOUJEONS;25;27;BOURGOGNE-FRANCHE-COMTE;U2010520;La Taverne;http://id.eaufrance.fr/CEA/U2010520;NA;2021-05-12T00:00:00Z;1993-01-26T00:00:00Z;1996-03-21T00:00:00Z;NA;1;20;12;1;2;NA;NA;NA;NA;DOUBS;FALSE
U2015410;Le ruisseau du Lhaut à Labergement-Sainte-Marie;U201541001;Le ruisseau du Lhaut à Labergement-Sainte-Marie;LIMNI;948981;6633773;26;6.262950450236131;46.757774061947146;1;NA;NA;NA;25320;LABERGEMENT-SAINTE-MARIE;25;27;BOURGOGNE-FRANCHE-COMTE;U2010540;Ruisseau du Lhaut;http://id.eaufrance.fr/CEA/U2010540;NA;2021-05-12T00:00:00Z;1993-01-26T00:00:00Z;1995-06-22T00:00:00Z;NA;1;20;12;1;2;600000184;NA;NA;NA;DOUBS;FALSE
U2016010;Le Remoray à Remoray-Boujeons;U201601001;Le Remoray à Remoray-Boujeons;LIMNI;947992;6634428;26;6.250357195581606;46.76403383496177;1;NA;NA;NA;25486;REMORAY-BOUJEONS;25;27;BOURGOGNE-FRANCHE-COMTE;U2010600;Remoray;http://id.eaufrance.fr/CEA/U2010600;NA;2021-05-12T00:00:00Z;1993-01-28T00:00:00Z;1995-06-22T00:00:00Z;NA;1;20;12;1;2;600000184;NA;NA;NA;DOUBS;FALSE
U2022010;Le Doubs à la Cluse-et-Mijoux [Pontarlier amont];U202201001;Le Doubs à la Cluse-et-Mijoux [Pontarlier amont];LIMNI;956152;6647810;26;6.36464996357247;46.8813412488848;1;Bassin versant incertain du point de vue géologique. Le 04/02/2008 : le producteur DIREN Rhône-Alpes/Bassin RMC est remplacé par DIREN Franche-Comté.;840000;3;25157;CLUSE-ET-MIJOUX;25;27;BOURGOGNE-FRANCHE-COMTE;U2--0200;Le Doubs;http://id.eaufrance.fr/CEA/U2--0200;NA;2021-01-19T00:00:00Z;1954-08-31T00:00:00Z;NA;NA;1;20;12;1;2;600000184,BSH001,BSH052,BSH101,BSH152,POH005,POH045,POH106,POH900,RIC063,RIC313;1954-08-31T00:00:00Z;2013-11-18T00:00:00Z;2020-12-22T00:00:00Z;DOUBS;TRUE
U2022015;Le Doubs à Pontarlier [Ville];U202201501;Le Doubs à Pontarlier [Ville];LIMNI;955413;6650521;26;6.356467395718415;46.90601122584976;1;NA;NA;NA;25462;PONTARLIER;25;27;BOURGOGNE-FRANCHE-COMTE;U2--0200;Le Doubs;http://id.eaufrance.fr/CEA/U2--0200;NA;2021-05-12T00:00:00Z;1978-10-03T00:00:00Z;1981-06-12T00:00:00Z;NA;1;20;12;1;2;600000184;NA;NA;NA;DOUBS;FALSE
U2022020;Le Doubs à Doubs;U202202001;Le Doubs à Doubs;LIMNI;954667;6652909;26;6.348005496412426;46.9277775684442;1;technolog roue codeuse, échelle sur passe RG;NA;NA;25204;DOUBS;25;27;BOURGOGNE-FRANCHE-COMTE;U2--0200;Le Doubs;http://id.eaufrance.fr/CEA/U2--0200;NA;2021-03-15T00:00:00Z;1986-06-17T00:00:00Z;2020-07-02T00:00:00Z;NA;1;20;12;1;2;600000184,600000191,POH005,POH045,POH900;NA;NA;NA;DOUBS;FALSE
U2022020;Le Doubs à Doubs;U202202002;Le Doubs à Doubs - Radar RD;LIMNI;954667;6652909;26;6.348005496412426;46.9277775684442;0;station LNS IP radar échelle en RD;NA;NA;25204;DOUBS;25;27;BOURGOGNE-FRANCHE-COMTE;U2--0200;Le Doubs;http://id.eaufrance.fr/CEA/U2--0200;NA;2021-02-10T00:00:00Z;2020-07-02T00:00:00Z;NA;NA;1;20;147;NA;NA;600000184,POH005,POH045,POH106,POH900,RIC063,RIC313;NA;NA;NA;DOUBS;TRUE
U2035020;Le Drugeon à Vuillecin;U203502001;Le Drugeon à Vuillecin - Vuillecin 1;LIMNI;953338;6654281;26;6.331314947379119;46.94062536112611;1;Ancienne station, hors service depuis 1975 puis démontée.;802;3;25634;VUILLECIN;25;27;BOURGOGNE-FRANCHE-COMTE;U2030500;Le Drugeon;http://id.eaufrance.fr/CEA/U2030500;NA;2021-02-15T00:00:00Z;1967-08-25T00:00:00Z;1975-03-02T00:00:00Z;NA;1;20;12;NA;NA;NA;1967-08-25T00:00:00Z;2015-12-23T00:00:00Z;2020-12-22T00:00:00Z;DOUBS;FALSE
U2035020;Le Drugeon à Vuillecin;U203502002;Le Drugeon à Vuillecin;LIMNI;952960;6653826;26;6.326098374153697;46.93667580617169;1;flotteur codeur remplacé le 02/06/2015 par un radar;803000;3;25634;VUILLECIN;25;27;BOURGOGNE-FRANCHE-COMTE;U2030500;Le Drugeon;http://id.eaufrance.fr/CEA/U2030500;NA;2021-01-19T00:00:00Z;1975-02-25T00:00:00Z;2015-06-02T00:00:00Z;NA;1;20;12;1;2;600000184,POH005,POH045,POH900;2015-06-02T00:00:00Z;2013-11-18T00:00:00Z;2016-10-06T00:00:00Z;DOUBS;FALSE
U2035020;Le Drugeon à Vuillecin;U203502003;Le Drugeon à Vuillecin - Pont Rouge;LIMNI;954202;6654628;26;6.342855784861699;46.94341814661917;1;NA;NA;NA;25634;VUILLECIN;25;27;BOURGOGNE-FRANCHE-COMTE;U2030500;Le Drugeon;http://id.eaufrance.fr/CEA/U2030500;NA;2020-12-22T00:00:00Z;2015-06-02T00:00:00Z;NA;NA;1;20;12;1;0;RIC063,RIC313;NA;NA;NA;DOUBS;TRUE
U2035030;Le Drugeon à la Rivière-Drugeon;U203503001;Le Drugeon à la Rivière-Drugeon;LIMNI;945317;6645839;26;6.221434044978383;46.86767757615403;1;NA;NA;NA;25493;RIVIERE-DRUGEON;25;27;BOURGOGNE-FRANCHE-COMTE;U2030500;Le Drugeon;http://id.eaufrance.fr/CEA/U2030500;NA;2021-02-15T00:00:00Z;1995-08-24T00:00:00Z;1999-01-20T00:00:00Z;NA;1;20;12;1;2;600000184;NA;NA;NA;DOUBS;FALSE
U2035030;Le Drugeon à la Rivière-Drugeon;U203503002;Le Drugeon à la Rivière-Drugeon - Ile du Martinet;LIMNI;945317;6645839;26;6.221434044978383;46.86767757615403;1;Station positionnée et reprise sur la même section que Rivière Drugeon [1], mais zéro d'échelle différent.;NA;NA;25493;RIVIERE-DRUGEON;25;27;BOURGOGNE-FRANCHE-COMTE;U2030500;Le Drugeon;http://id.eaufrance.fr/CEA/U2030500;NA;2020-12-22T00:00:00Z;2008-09-01T00:00:00Z;NA;NA;1;20;12;1;2;600000184,POH005,POH045,POH106,POH900,RIC063,RIC313;NA;NA;NA;DOUBS;TRUE
U2035040;Le Drugeon à Bonnevaux;U203504001;Le Drugeon à Bonnevaux;LIMNI;943347;6639258;26;6.192101212297897;46.80919241072906;1;NA;NA;NA;25075;BONNEVAUX;25;27;BOURGOGNE-FRANCHE-COMTE;U2030500;Le Drugeon;http://id.eaufrance.fr/CEA/U2030500;NA;2021-10-07T00:00:00Z;1995-08-23T00:00:00Z;NA;NA;1;20;12;1;2;600000184,POH005,POH045,POH106,POH900;NA;NA;NA;DOUBS;TRUE
U2035050;Le Drugeon à Vaux-et-Chantegrue;U203505001;Le Drugeon à Vaux-et-Chantegrue;LIMNI;947579;6639788;26;6.247838163896106;46.81240709438965;1;NA;NA;NA;25592;VAUX-ET-CHANTEGRUE;25;27;BOURGOGNE-FRANCHE-COMTE;U2030500;Le Drugeon;http://id.eaufrance.fr/CEA/U2030500;NA;2020-12-22T00:00:00Z;1995-09-06T00:00:00Z;2013-01-01T00:00:00Z;NA;1;20;12;1;2;600000184,POH005,POH045,POH900;NA;NA;NA;DOUBS;FALSE
U2035050;Le Drugeon à Vaux-et-Chantegrue;U203505002;Le Drugeon à Vaux-et-Chantegrue - Scierie 2;LIMNI;947361;6640333;26;6.245275247616351;46.81739074287287;1;NA;NA;NA;25592;VAUX-ET-CHANTEGRUE;25;27;BOURGOGNE-FRANCHE-COMTE;U2030500;Le Drugeon;http://id.eaufrance.fr/CEA/U2030500;NA;2020-12-22T00:00:00Z;2013-01-01T00:00:00Z;NA;technolog remplacé en janvier 2020 par une LNS et IP;1;20;12;NA;NA;600000184,POH005,POH045,POH106,POH900,RIC063,RIC313;NA;NA;NA;DOUBS;TRUE
U2040520;La Jougnena à Jougne [La Ferrière];U204052001;La Jougnena à Jougne [La Ferrière];LIMNI;957964;6632087;26;6.379588268759105;46.73920562509026;1;NA;NA;NA;25318;JOUGNE;25;27;BOURGOGNE-FRANCHE-COMTE;U2040500;La Jougnena;http://id.eaufrance.fr/CEA/U2040500;NA;2021-02-15T00:00:00Z;1996-12-11T00:00:00Z;2011-06-21T00:00:00Z;NA;1;20;12;1;2;600000184;NA;NA;NA;DOUBS;FALSE
U2040520;La Jougnena à Jougne [La Ferrière];U204052002;La Jougnena à Jougne [La Ferrière] - La Ferrière 2;LIMNI;958219;6631445;26;6.38256486135357;46.73333203287007;1;NA;813.36;3;25318;JOUGNE;25;27;BOURGOGNE-FRANCHE-COMTE;U2040500;La Jougnena;http://id.eaufrance.fr/CEA/U2040500;NA;2020-12-22T00:00:00Z;1999-09-16T00:00:00Z;NA;NA;1;20;12;1;2;600000184,POH005,POH045,POH106,POH900,RIC063,RIC313;1999-09-16T00:00:00Z;2019-01-03T00:00:00Z;2020-12-22T00:00:00Z;DOUBS;TRUE
U2100500;Le Théverot à Grand'Combe-Châteleu [Châteleu];U210050001;Le Théverot à Grand'Combe-Châteleu [Châteleu];LIMNI;971419;6665085;26;6.575189049783538;47.030688502569;NA;NA;NA;NA;25285;GRAND'COMBE-CHATELEU;25;27;BOURGOGNE-FRANCHE-COMTE;U2100500;Le Théverot;http://id.eaufrance.fr/CEA/U2100500;NA;2021-05-12T00:00:00Z;2001-02-14T00:00:00Z;2002-04-01T00:00:00Z;NA;1;16;NA;1;2;600000184;NA;NA;NA;DOUBS;FALSE
U2102010;Le Doubs à Ville-du-Pont;U210201001;Le Doubs à Ville-du-Pont;LIMNI;964079;6661449;26;6.476524405092287;47.0009348091397;1;NA;NA;NA;25620;VILLE-DU-PONT;25;27;BOURGOGNE-FRANCHE-COMTE;U2--0200;Le Doubs;http://id.eaufrance.fr/CEA/U2--0200;NA;2021-06-14T00:00:00Z;1978-09-07T00:00:00Z;2013-07-04T00:00:00Z;NA;1;20;12;1;2;600000184,POH005,POH045,POH900;NA;NA;NA;DOUBS;FALSE
U2102010;Le Doubs à Ville-du-Pont;U210201002;Le Doubs à Ville-du-Pont - Spey;LIMNI;964357;6661686;26;6.4803168886138804;47.00295631884498;1;NA;NA;NA;25620;VILLE-DU-PONT;25;27;BOURGOGNE-FRANCHE-COMTE;U2--0200;Le Doubs;http://id.eaufrance.fr/CEA/U2--0200;NA;2021-02-15T00:00:00Z;2013-01-30T00:00:00Z;NA;NA;1;20;12;1;2;600000184,POH005,POH045,POH106,RIC063,RIC313;NA;NA;NA;DOUBS;TRUE
U2102020;Le Doubs à Arçon;U210202001;Le Doubs à Arçon;LIMNI;957380;6655166;26;6.384899965401457;46.94703907557184;1;NA;NA;NA;25024;ARCON;25;27;BOURGOGNE-FRANCHE-COMTE;U2--0200;Le Doubs;http://id.eaufrance.fr/CEA/U2--0200;NA;2021-05-12T00:00:00Z;1981-07-02T00:00:00Z;1986-09-18T00:00:00Z;NA;1;20;12;1;2;600000184;NA;NA;NA;DOUBS;FALSE
U2112010;Le Doubs à Fournet-Blancheroche [La Rasse];U211201001;Le Doubs à Fournet-Blancheroche [La Rasse];LIMNI;991062;6679814;26;6.842972061337355;47.154845234902915;3;NA;615000;3;25255;FOURNET-BLANCHEROCHE;25;27;BOURGOGNE-FRANCHE-COMTE;U2--0200;Le Doubs;http://id.eaufrance.fr/CEA/U2--0200;NA;2021-01-19T00:00:00Z;1992-01-23T00:00:00Z;NA;NA;1;20;47;1;2;600000184,POH005,POH045,POH106,POH900,RIC063,RIC313;1992-01-23T00:00:00Z;2013-11-18T00:00:00Z;2019-09-26T00:00:00Z;DOUBS;TRUE
U2112020;Le Doubs à Fournet-Blancheroche [Chatelot];U211202001;Le Doubs à Fournet-Blancheroche [Chatelot];LIMNI;983622;6673873;26;6.741175025773931;47.10463561560612;NA;NA;NA;NA;25255;FOURNET-BLANCHEROCHE;25;27;BOURGOGNE-FRANCHE-COMTE;U2--0200;Le Doubs;http://id.eaufrance.fr/CEA/U2--0200;NA;2021-05-12T00:00:00Z;2003-08-06T00:00:00Z;NA;NA;1;16;NA;1;2;NA;NA;NA;NA;DOUBS;TRUE
U2122010;Le Doubs à Goumois;U212201001;Le Doubs à Goumois;LIMNI;998549;6693172;26;6.950478935030202;47.27163211017079;1;Bassin versant incertain du point de vue géologique. Le 04/02/2008 : le producteur DIREN Rhône-Alpes/Bassin RMC est remplacé par DIREN Franche-Comté.;486000;3;25280;GOUMOIS;25;27;BOURGOGNE-FRANCHE-COMTE;U2--0200;Le Doubs;http://id.eaufrance.fr/CEA/U2--0200;NA;2021-01-19T00:00:00Z;1955-01-01T00:00:00Z;NA;NA;1;20;12;1;2;POH005,POH045,POH106,POH900,RIC063,RIC313;1955-01-01T00:00:00Z;2013-11-18T00:00:00Z;2020-12-22T00:00:00Z;DOUBS;TRUE
U2122020;Le Doubs à Fournet-Blancheroche [Refrain];U212202001;Le Doubs à Fournet-Blancheroche [Refrain];LIMNI;993187;6683553;26;6.873403925399329;47.18753234511102;3;NA;NA;NA;25255;FOURNET-BLANCHEROCHE;25;27;BOURGOGNE-FRANCHE-COMTE;U2--0200;Le Doubs;http://id.eaufrance.fr/CEA/U2--0200;NA;2021-10-07T00:00:00Z;2003-07-23T00:00:00Z;NA;NA;1;16;12;1;2;600000184,POH005,POH045,POH106,POH900;NA;NA;NA;DOUBS;TRUE
U2122030;Le Doubs à Charmauvillers [La Goule];U212203001;Le Doubs à Charmauvillers [La Goule];LIMNI;996940;6687859;26;6.925731082675926;47.22458295615412;3;NA;NA;NA;25124;CHARMAUVILLERS;25;27;BOURGOGNE-FRANCHE-COMTE;U2--0200;Le Doubs;http://id.eaufrance.fr/CEA/U2--0200;NA;2021-01-19T00:00:00Z;2003-07-23T00:00:00Z;2004-08-28T00:00:00Z;NA;1;16;12;1;2;600000184;NA;NA;NA;DOUBS;FALSE
U2142010;Le Doubs à Glère [Courclavon];U214201001;Le Doubs à Glère [Courclavon];LIMNI;1003841;6701484;26;7.025986931646866;47.343959176103944;1;Bassin versant incertain du point de vue géologique. Le 04/02/2008 : le producteur DIREN Rhône-Alpes/Bassin RMC est remplacé par DIREN Franche-Comté.;410000;3;25275;GLERE;25;27;BOURGOGNE-FRANCHE-COMTE;U2--0200;Le Doubs;http://id.eaufrance.fr/CEA/U2--0200;NA;2021-01-19T00:00:00Z;1948-01-01T00:00:00Z;NA;NA;1;20;12;1;2;600000184,BSH001,BSH052,BSH101,BSH152,POH005,POH045,POH106,POH900,RIC063,RIC313;1948-01-01T00:00:00Z;2013-11-18T00:00:00Z;2020-12-22T00:00:00Z;DOUBS;TRUE
U2202010;Le Doubs à Soulce-Cernay;U220201001;Le Doubs à Soulce-Cernay;LIMNI;991316;6698883;26;6.8586138790951745;47.3262004654032;1;NA;NA;NA;25551;SOULCE-CERNAY;25;27;BOURGOGNE-FRANCHE-COMTE;U2--0200;Le Doubs;http://id.eaufrance.fr/CEA/U2--0200;NA;2021-05-12T00:00:00Z;1985-06-28T00:00:00Z;1985-12-01T00:00:00Z;NA;1;20;12;1;2;600000184;NA;NA;NA;DOUBS;FALSE
U2215010;Le Dessoubre à Rosureux;U221501001;Le Dessoubre à Rosureux;LIMNI;975799;6685046;26;6.6449307065131915;47.20840785484699;1;NA;444000;2;25504;ROSUREUX;25;27;BOURGOGNE-FRANCHE-COMTE;U2210500;Le Dessoubre;http://id.eaufrance.fr/CEA/U2210500;NA;2021-05-12T00:00:00Z;1969-10-24T00:00:00Z;1977-04-08T00:00:00Z;NA;1;20;12;1;2;600000184;1969-10-24T00:00:00Z;2013-11-18T00:00:00Z;2013-11-18T00:00:00Z;DOUBS;FALSE
U2215015;Le Dessoubre à Rosureux;U221501501;Le Dessoubre à Rosureux;LIMNI;978891;6686338;26;6.686531842836766;47.218735020684065;1;Station démontée pour cause de travaux sur le pont supportant le capteur. Ré-équipement prévu avant fin novembre 2019.;NA;NA;25504;ROSUREUX;25;27;BOURGOGNE-FRANCHE-COMTE;U2210500;Le Dessoubre;http://id.eaufrance.fr/CEA/U2210500;NA;2020-12-22T00:00:00Z;2008-05-14T00:00:00Z;NA;NA;1;16;12;1;2;600000184,POH005,POH045,POH106,POH900,RIC063,RIC313;NA;NA;NA;DOUBS;TRUE
U2215020;Le Dessoubre à Saint-Hippolyte;U221502001;Le Dessoubre à Saint-Hippolyte;LIMNI;986559;6696321;26;6.7940737298748495;47.305237893592505;1;Bassin versant incertain du point de vue géologique. Le 04/02/2008 : le producteur DIREN Rhône-Alpes/Bassin RMC est remplacé par DIREN Franche-Comté.;379000;3;25519;SAINT-HIPPOLYTE;25;27;BOURGOGNE-FRANCHE-COMTE;U2210500;Le Dessoubre;http://id.eaufrance.fr/CEA/U2210500;NA;2021-01-19T00:00:00Z;1955-06-01T00:00:00Z;NA;NA;1;20;12;1;2;600000184,POH005,POH045,POH106,POH900,RIC063,RIC313;1955-06-01T00:00:00Z;2013-11-18T00:00:00Z;2020-12-22T00:00:00Z;DOUBS;TRUE
U2215030;Le Dessoubre à Plaimbois-du-Miroir [Gigot Dessoubre];U221503001;Le Dessoubre à Plaimbois-du-Miroir [Gigot Dessoubre];LIMNI;973688;6684129;26;6.616516439891685;47.20103460609649;1;NA;NA;NA;25456;PLAIMBOIS-DU-MIROIR;25;27;BOURGOGNE-FRANCHE-COMTE;U2210500;Le Dessoubre;http://id.eaufrance.fr/CEA/U2210500;NA;2021-05-12T00:00:00Z;1989-08-03T00:00:00Z;1991-01-31T00:00:00Z;NA;1;20;12;1;2;600000184;NA;NA;NA;DOUBS;FALSE
U2215210;La Reverotte à Plaimbois-du-Miroir [Gigot Reverotte];U221521001;La Reverotte à Plaimbois-du-Miroir [Gigot Reverotte];LIMNI;973622;6684233;26;6.615708417380544;47.20199711189011;1;NA;NA;NA;25456;PLAIMBOIS-DU-MIROIR;25;27;BOURGOGNE-FRANCHE-COMTE;U2210520;La Reverotte;http://id.eaufrance.fr/CEA/U2210520;NA;2021-05-12T00:00:00Z;1989-08-17T00:00:00Z;1991-01-31T00:00:00Z;NA;1;20;12;1;2;600000184;NA;NA;NA;DOUBS;FALSE
U2222005;Le Doubs à Villars-sous-Dampjoux;U222200501;Le Doubs à Villars-sous-Dampjoux;LIMNI;983685;6701004;26;6.759028816043522;47.348584383201526;2;Nouvelle station influencée par une micro-centrale.;NA;NA;25617;VILLARS-SOUS-DAMPJOUX;25;27;BOURGOGNE-FRANCHE-COMTE;U2--0200;Le Doubs;http://id.eaufrance.fr/CEA/U2--0200;NA;2020-12-22T00:00:00Z;2008-05-14T00:00:00Z;NA;Micro-centrale;1;16;12;1;2;600000184,POH005,POH045,POH106,POH900,RIC063,RIC313;NA;NA;NA;DOUBS;TRUE
U2222010;Le Doubs à Mathay;U222201001;Le Doubs à Mathay;LIMNI;985221;6711286;26;6.785878128202081;47.44037732744088;1;Le 04/02/2008 : le producteur DIREN Rhône-Alpes/Bassin RMC est remplacé par la DIREN Franche-Comté.;332000;3;25370;MATHAY;25;27;BOURGOGNE-FRANCHE-COMTE;U2--0200;Le Doubs;http://id.eaufrance.fr/CEA/U2--0200;NA;2021-01-19T00:00:00Z;1975-09-01T00:00:00Z;NA;NA;1;20;12;1;2;600000184,POH005,POH045,POH106,POH900,RIC063,RIC163,RIC313;1975-09-01T00:00:00Z;2013-11-18T00:00:00Z;2020-12-22T00:00:00Z;DOUBS;TRUE
U2225410;Le Gland à Meslières;U222541001;Le Gland à Meslières;LIMNI;993187;6708772;26;6.889803517575841;47.41428933531744;1;NA;NA;NA;25378;MESLIERES;25;27;BOURGOGNE-FRANCHE-COMTE;U2220540;Le Gland;http://id.eaufrance.fr/CEA/U2220540;NA;2021-01-19T00:00:00Z;1987-01-22T00:00:00Z;NA;NA;1;20;12;1;2;600000184,POH005,POH045,POH106,POH900,RIC063,RIC313;NA;NA;NA;DOUBS;TRUE
U2225420;Le Gland à Seloncourt;U222542001;Le Gland à Seloncourt;LIMNI;990727;6713896;26;6.860539123904209;47.46144565239627;1;NA;NA;NA;25539;SELONCOURT;25;27;BOURGOGNE-FRANCHE-COMTE;U2220540;Le Gland;http://id.eaufrance.fr/CEA/U2220540;NA;2021-05-12T00:00:00Z;1986-11-25T00:00:00Z;1991-10-24T00:00:00Z;NA;1;20;12;1;2;600000184;NA;NA;NA;DOUBS;FALSE
U2225810;La Doue à Glay [Papeterie];U222581001;La Doue à Glay [Papeterie];LIMNI;994644;6707675;26;6.90838270815257;47.403778818750496;1;NA;NA;NA;25274;GLAY;25;27;BOURGOGNE-FRANCHE-COMTE;U2220580;La Doue;http://id.eaufrance.fr/CEA/U2220580;NA;2021-05-12T00:00:00Z;1988-08-01T00:00:00Z;1993-01-20T00:00:00Z;NA;1;20;12;1;2;600000184;NA;NA;NA;DOUBS;FALSE
U2305210;La Bourbeuse [Le Saint-Nicolas] à Rougemont-le-Château;U230521001;La Bourbeuse [Le Saint-Nicolas] à Rougemont-le-Château;LIMNI;995894;6744968;26;6.949659512793924;47.73848818222832;1;NA;NA;NA;90089;ROUGEMONT-LE-CHATEAU;90;27;BOURGOGNE-FRANCHE-COMTE;U23-0420;La Bourbeuse;http://id.eaufrance.fr/CEA/U23-0420;NA;2021-03-15T00:00:00Z;1974-07-26T00:00:00Z;2021-08-10T00:00:00Z;NA;1;20;12;1;2;600000184,POH005,POH045,POH106,POH900;NA;NA;NA;TERRITOIRE DE BELFORT;FALSE
U2305210;La Bourbeuse [Le Saint-Nicolas] à Rougemont-le-Château;U230521002;La Bourbeuse [Le Saint-Nicolas] à Rougemont-le-Château;LIMNI;995894;6744968;26;6.949659512793924;47.73848818222832;0;modernisation station en novembre 2016, déplacement échelle 4/5m vers l'aval sous le pont;NA;NA;90089;ROUGEMONT-LE-CHATEAU;90;27;BOURGOGNE-FRANCHE-COMTE;U23-0420;La Bourbeuse;http://id.eaufrance.fr/CEA/U23-0420;NA;2021-02-10T00:00:00Z;2016-12-06T00:00:00Z;NA;NA;1;20;NA;NA;NA;600000184,POH005,POH045,POH106,POH900,RIC063,RIC313;NA;NA;NA;TERRITOIRE DE BELFORT;TRUE
U2305220;La Bourbeuse à Fontaine [Les grands champs];U230522001;La Bourbeuse à Fontaine [Les grands champs];LIMNI;999395;6736270;26;6.990450091327373;47.65871544455733;1;Station CNR ;347760;0;90047;FONTAINE;90;27;BOURGOGNE-FRANCHE-COMTE;U23-0420;La Bourbeuse;http://id.eaufrance.fr/CEA/U23-0420;NA;2021-05-12T00:00:00Z;1975-01-01T00:00:00Z;1997-12-31T00:00:00Z;NA;1;20;12;1;2;600000184;1975-01-01T00:00:00Z;2013-11-18T00:00:00Z;2013-11-18T00:00:00Z;TERRITOIRE DE BELFORT;FALSE
U2305230;La Bourbeuse à Montreux-Château [La petite fin];U230523001;La Bourbeuse à Montreux-Château [La petite fin];LIMNI;1000611;6730184;26;7.0025214966395275;47.60345170874774;1;Station CNR pour le projet de grand canal.;336270;0;90071;MONTREUX-CHATEAU;90;27;BOURGOGNE-FRANCHE-COMTE;U23-0420;La Bourbeuse;http://id.eaufrance.fr/CEA/U23-0420;NA;2021-05-12T00:00:00Z;1992-01-01T00:00:00Z;1997-12-31T00:00:00Z;NA;1;20;12;1;2;600000184;1992-01-01T00:00:00Z;2013-11-18T00:00:00Z;2013-11-18T00:00:00Z;TERRITOIRE DE BELFORT;FALSE
U2305240;La Bourbeuse [Le Saint-Nicolas] à Foussemagne;U230524001;La Bourbeuse [Le Saint-Nicolas] à Foussemagne;LIMNI;1000147;6733794;26;6.998786120924684;47.636115365683075;1;NA;342320;3;90049;FOUSSEMAGNE;90;27;BOURGOGNE-FRANCHE-COMTE;U23-0420;La Bourbeuse;http://id.eaufrance.fr/CEA/U23-0420;NA;2021-01-19T00:00:00Z;2008-05-14T00:00:00Z;NA;NA;1;16;12;1;2;600000184,POH005,POH045,POH106,POH900,RIC063,RIC313;2008-05-14T00:00:00Z;2013-11-18T00:00:00Z;2016-10-06T00:00:00Z;TERRITOIRE DE BELFORT;TRUE
U2315010;La Madeleine à Étueffont;U231501001;La Madeleine à Étueffont;LIMNI;993786;6743444;26;6.92055865105149;47.72573354430524;1;NA;NA;NA;90041;ETUEFFONT;90;27;BOURGOGNE-FRANCHE-COMTE;U2310500;La Madeleine;http://id.eaufrance.fr/CEA/U2310500;NA;2021-05-12T00:00:00Z;1974-10-01T00:00:00Z;1981-01-01T00:00:00Z;NA;1;20;12;1;2;600000184;NA;NA;NA;TERRITOIRE DE BELFORT;FALSE
U2315220;L'Autruche à Fontenelle [Puits];U231522001;L'Autruche à Fontenelle [Puits];LIMNI;997074;6732021;26;6.956731507817066;47.621569596780695;1;NA;338000;2;90048;FONTENELLE;90;27;BOURGOGNE-FRANCHE-COMTE;U2310520;L'Autruche;http://id.eaufrance.fr/CEA/U2310520;NA;2021-05-12T00:00:00Z;1967-11-03T00:00:00Z;1971-09-10T00:00:00Z;NA;1;20;12;1;2;600000184;1967-11-03T00:00:00Z;2013-11-18T00:00:00Z;2013-11-18T00:00:00Z;TERRITOIRE DE BELFORT;FALSE
U2315220;L'Autruche à Fontenelle [Puits];U231522002;L'Autruche à Fontenelle [Puits] - 2;LIMNI;996930;6732005;26;6.954806112656702;47.62149066651066;1;NA;NA;NA;90048;FONTENELLE;90;27;BOURGOGNE-FRANCHE-COMTE;U2310520;L'Autruche;http://id.eaufrance.fr/CEA/U2310520;NA;2021-05-12T00:00:00Z;1971-09-10T00:00:00Z;1980-05-20T00:00:00Z;NA;1;20;12;1;2;600000184;NA;NA;NA;TERRITOIRE DE BELFORT;FALSE
U2315230;L'Autruche à Roppe;U231523001;L'Autruche à Roppe;LIMNI;993856;6737196;26;6.917358184488467;47.669535186119894;1;NA;NA;NA;90087;ROPPE;90;27;BOURGOGNE-FRANCHE-COMTE;U2310520;L'Autruche;http://id.eaufrance.fr/CEA/U2310520;NA;2021-05-12T00:00:00Z;1975-04-03T00:00:00Z;1990-01-24T00:00:00Z;NA;1;20;12;1;2;600000184;NA;NA;NA;TERRITOIRE DE BELFORT;FALSE
U2324210;La Bourbeuse à Froidefontaine;U232421001;La Bourbeuse à Froidefontaine;LIMNI;996380;6725836;26;6.943392963864361;47.56627929351643;NA;Le 04/02/2008 : le producteur DIREN Rhône-Alpes/Bassin RMC est remplacé par la DIREN Franche-Comté.;330060;3;90051;FROIDEFONTAINE;90;27;BOURGOGNE-FRANCHE-COMTE;U23-0420;La Bourbeuse;http://id.eaufrance.fr/CEA/U23-0420;NA;2020-12-22T00:00:00Z;1996-01-01T00:00:00Z;NA;NA;1;20;12;1;2;600000184,POH005,POH045,POH106,POH900,RIC063,RIC313;1996-01-01T00:00:00Z;2013-11-18T00:00:00Z;2020-12-22T00:00:00Z;TERRITOIRE DE BELFORT;TRUE
U2330600;La Feschotte à Badevel;U233060001;La Feschotte à Badevel;LIMNI;996544;6718389;26;6.940630713061868;47.499255309448685;1;NA;352280;3;25040;BADEVEL;25;27;BOURGOGNE-FRANCHE-COMTE;U2330600;La Feschotte;http://id.eaufrance.fr/CEA/U2330600;NA;2020-12-22T00:00:00Z;2001-12-19T00:00:00Z;NA;NA;1;16;12;1;2;600000184,POH005,POH045,POH106,POH900,RIC063,RIC313;2009-03-23T00:00:00Z;2013-11-18T00:00:00Z;2020-12-22T00:00:00Z;DOUBS;TRUE
U2334010;L'Allan à Fesches-le-Châtel;U233401001;L'Allan à Fesches-le-Châtel;LIMNI;991916;6720831;26;6.880824760970566;47.52327252465649;1;Station exploitée par le S.H.C. Dijon à partir du 01/01/1991 jusqu'au 31/12/1995.;320590;3;25237;FESCHES-LE-CHATEL;25;27;BOURGOGNE-FRANCHE-COMTE;U23-0400;L'Allan;http://id.eaufrance.fr/CEA/U23-0400;NA;2021-02-15T00:00:00Z;1986-06-03T00:00:00Z;NA;NA;1;20;12;1;2;600000184,POH005,POH045,POH106,POH900,RIC063,RIC313;1986-06-04T00:00:00Z;2013-11-18T00:00:00Z;2020-12-22T00:00:00Z;DOUBS;TRUE
U2334020;L'Allan à Joncherey;U233402001;L'Allan à Joncherey;LIMNI;1000701;6721600;26;6.9979359776165335;47.52624254636036;1;Le 04/02/2008 : le producteur DIREN Rhône-Alpes/Bassin RMC est remplacé par la DIREN Franche-Comté.;352426;3;90056;JONCHEREY;90;27;BOURGOGNE-FRANCHE-COMTE;U23-0400;L'Allan;http://id.eaufrance.fr/CEA/U23-0400;NA;2021-01-19T00:00:00Z;1995-11-23T00:00:00Z;NA;NA;1;20;12;1;2;600000184,POH005,POH045,POH106,POH900,RIC063,RIC313;1995-11-23T00:00:00Z;2013-11-18T00:00:00Z;2020-12-22T00:00:00Z;TERRITOIRE DE BELFORT;TRUE
U2334030;L'Allan à Morvillars [Graviers Rançon];U233403001;L'Allan à Morvillars [Graviers Rançon];LIMNI;996605;6723374;26;6.94474654674616;47.54404447375603;1;NA;337300;3;90072;MORVILLARS;90;27;BOURGOGNE-FRANCHE-COMTE;U23-0400;L'Allan;http://id.eaufrance.fr/CEA/U23-0400;NA;2021-05-12T00:00:00Z;1974-01-01T00:00:00Z;1997-12-31T00:00:00Z;NA;1;20;12;1;2;NA;1975-01-01T00:00:00Z;2013-11-18T00:00:00Z;2013-11-18T00:00:00Z;TERRITOIRE DE BELFORT;FALSE
U2345020;La Savoureuse à Giromagny;U234502001;La Savoureuse à Giromagny;LIMNI;986734;6744817;26;6.82748663854875;47.741189163913425;1;Le 04/02/2008 : le producteur DIREN Rhône-Alpes/Bassin RMC est remplacé par la DIREN Franche-Comté.;467000;3;90052;GIROMAGNY;90;27;BOURGOGNE-FRANCHE-COMTE;U2340500;La Savoureuse;http://id.eaufrance.fr/CEA/U2340500;NA;2021-03-15T00:00:00Z;1974-07-10T00:00:00Z;NA;NA;1;20;12;1;2;600000184,POH005,POH045,POH106,POH900,RIC014,RIC063,RIC113,RIC263,RIC313;1974-07-10T00:00:00Z;2013-11-18T00:00:00Z;2020-12-22T00:00:00Z;TERRITOIRE DE BELFORT;TRUE
U2345030;La Savoureuse à Belfort;U234503001;La Savoureuse à Belfort;LIMNI;989651;6733797;26;6.859178987557935;47.64084120948063;2;Station déplacée le 15/04/1991, ancien N.G.F.: 356.19 m. Le 04/02/2008 : le producteur DIREN Rhône-Alpes/Bassin RMC est remplacé par la DIREN Franche-Comté.;356550;3;90010;BELFORT;90;27;BOURGOGNE-FRANCHE-COMTE;U2340500;La Savoureuse;http://id.eaufrance.fr/CEA/U2340500;NA;2021-03-15T00:00:00Z;1964-12-03T00:00:00Z;NA;Possible vannage de la ville de Belfort sur seuil en rivière à proximité.;1;20;12;1;2;600000184,BSH001,BSH052,BSH101,BSH152,POH005,POH045,POH106,POH900,RIC014,RIC063,RIC113,RIC263,RIC313;1964-12-03T00:00:00Z;2013-11-18T00:00:00Z;2020-12-22T00:00:00Z;TERRITOIRE DE BELFORT;TRUE
U2345040;La Savoureuse à Vieux-Charmont;U234504001;La Savoureuse à Vieux-Charmont;LIMNI;989148;6720544;26;6.843898880576271;47.52191044419819;1;Station exploitée par le S.H.C. Dijon a partir du 01/01/1991.;316505;3;25614;VIEUX-CHARMONT;25;27;BOURGOGNE-FRANCHE-COMTE;U2340500;La Savoureuse;http://id.eaufrance.fr/CEA/U2340500;NA;2021-03-15T00:00:00Z;1986-06-04T00:00:00Z;NA;NA;1;20;12;1;2;600000184,POH005,POH045,POH106,POH900,RIC063,RIC113,RIC263,RIC313;1986-06-04T00:00:00Z;2013-11-18T00:00:00Z;2020-12-22T00:00:00Z;DOUBS;TRUE
U2345420;Le Rhôme à Lachapelle-sous-Chaux [Lachapelle Bis];U234542001;Le Rhôme à Lachapelle-sous-Chaux [Lachapelle Bis];LIMNI;986101;6740759;26;6.816434130278437;47.70498327519674;1;NA;406550;3;90057;LACHAPELLE-SOUS-CHAUX;90;27;BOURGOGNE-FRANCHE-COMTE;U2340540;Le Rhôme;http://id.eaufrance.fr/CEA/U2340540;NA;2021-01-19T00:00:00Z;2005-04-10T00:00:00Z;NA;NA;1;20;12;1;2;600000184,POH005,POH045,POH106,POH900,RIC063,RIC313;2005-04-10T00:00:00Z;2013-11-18T00:00:00Z;2016-10-06T00:00:00Z;TERRITOIRE DE BELFORT;TRUE
U2345420;Le Rhôme à Lachapelle-sous-Chaux [Lachapelle Bis];U234542002;Le Rhôme à Lachapelle-sous-Chaux [Lachapelle Bis] - ancienne;LIMNI;986101;6740759;26;6.816434130278437;47.70498327519674;0;ancienne station (flotteur);NA;NA;90057;LACHAPELLE-SOUS-CHAUX;90;27;BOURGOGNE-FRANCHE-COMTE;U2340540;Le Rhôme;http://id.eaufrance.fr/CEA/U2340540;NA;2021-03-15T00:00:00Z;1974-06-28T00:00:00Z;2010-06-29T00:00:00Z;NA;1;16;NA;NA;NA;600000184,POH005,POH045,POH900;NA;NA;NA;TERRITOIRE DE BELFORT;FALSE
U2345810;La Rosemontoise à Riervescemont [Rosemont];U234581001;La Rosemontoise à Riervescemont [Rosemont];LIMNI;989211;6747243;26;6.862081198854967;47.761913234808056;1;NA;NA;NA;90085;RIERVESCEMONT;90;27;BOURGOGNE-FRANCHE-COMTE;U2340580;La Rosemontoise;http://id.eaufrance.fr/CEA/U2340580;NA;2021-05-12T00:00:00Z;1968-06-28T00:00:00Z;1994-10-13T00:00:00Z;NA;1;20;12;1;2;600000184;NA;NA;NA;TERRITOIRE DE BELFORT;FALSE
U2345820;La Rosemontoise à Chaux;U234582001;La Rosemontoise à Chaux;LIMNI;989576;6741117;26;6.862948730275525;47.70668138693829;1;NA;NA;NA;90023;CHAUX;90;27;BOURGOGNE-FRANCHE-COMTE;U2340580;La Rosemontoise;http://id.eaufrance.fr/CEA/U2340580;NA;2021-01-19T00:00:00Z;1974-05-21T00:00:00Z;2009-09-23T00:00:00Z;NA;1;20;12;1;2;600000184;NA;NA;NA;TERRITOIRE DE BELFORT;FALSE
U2345830;La Rosemontoise à Rougegoutte;U234583001;La Rosemontoise à Rougegoutte;LIMNI;988160;6743497;26;6.845634214020626;47.72869914843158;1;NA;446390;3;90088;ROUGEGOUTTE;90;27;BOURGOGNE-FRANCHE-COMTE;U2340580;La Rosemontoise;http://id.eaufrance.fr/CEA/U2340580;NA;2021-01-19T00:00:00Z;2005-04-01T00:00:00Z;NA;NA;1;20;12;1;2;600000184,POH005,POH045,POH106,POH900,RIC063,RIC313;2005-04-01T00:00:00Z;2013-11-18T00:00:00Z;2016-10-06T00:00:00Z;TERRITOIRE DE BELFORT;TRUE
U2346410;La Douce à Bermont;U234641001;La Douce à Bermont;LIMNI;989758;6727168;26;6.856292396949535;47.58119705175471;1;NA;336000;3;90011;BERMONT;90;27;BOURGOGNE-FRANCHE-COMTE;U2340640;La Douce;http://id.eaufrance.fr/CEA/U2340640;NA;2021-05-12T00:00:00Z;1987-01-27T00:00:00Z;1989-05-11T00:00:00Z;NA;1;20;12;1;2;600000184;1987-01-27T00:00:00Z;2013-11-18T00:00:00Z;2013-11-18T00:00:00Z;TERRITOIRE DE BELFORT;FALSE
U2350530;La Lizaine à Héricourt;U235053001;La Lizaine à Héricourt;LIMNI;981247;6726789;26;6.742955594718894;47.58147451148036;1;NA;330280;3;70285;HERICOURT;70;27;BOURGOGNE-FRANCHE-COMTE;U2350500;La Lizaine;http://id.eaufrance.fr/CEA/U2350500;NA;2021-01-19T00:00:00Z;2008-05-14T00:00:00Z;NA;NA;1;16;12;1;2;600000184,POH005,POH045,POH106,POH900,RIC063,RIC313;2008-05-14T00:00:00Z;2013-11-18T00:00:00Z;2016-10-06T00:00:00Z;HAUTE-SAONE;TRUE
U2354010;L'Allan à Courcelles-lès-Montbéliard;U235401001;L'Allan à Courcelles-lès-Montbéliard;LIMNI;983932;6717918;26;6.772997716940905;47.5005635373635;1;NA;309220;3;25170;COURCELLES-LES-MONTBELIARD;25;27;BOURGOGNE-FRANCHE-COMTE;U23-0400;L'Allan;http://id.eaufrance.fr/CEA/U23-0400;NA;2021-03-15T00:00:00Z;1981-04-15T00:00:00Z;NA;NA;1;20;2;1;2;600000184,BSH001,BSH052,BSH101,BSH152,POH005,POH045,POH106,POH900,RIC014,RIC063,RIC113,RIC263,RIC313;1981-04-15T00:00:00Z;2013-11-18T00:00:00Z;2020-12-22T00:00:00Z;DOUBS;TRUE
U2354020;L'Allan à Montbéliard;U235402001;L'Allan à Montbéliard;LIMNI;986520;6718525;26;6.807723673517207;47.50490337451332;1;NA;NA;NA;25388;MONTBELIARD;25;27;BOURGOGNE-FRANCHE-COMTE;U23-0400;L'Allan;http://id.eaufrance.fr/CEA/U23-0400;NA;2021-05-12T00:00:00Z;1991-01-01T00:00:00Z;1999-01-01T00:00:00Z;NA;1;20;12;1;2;600000184;NA;NA;NA;DOUBS;FALSE
U2354020;L'Allan à Montbéliard;U235402002;L'Allan à Montbéliard - Porte de garde;LIMNI;986520;6718525;26;6.807723673517207;47.50490337451332;1;NA;NA;NA;25388;MONTBELIARD;25;27;BOURGOGNE-FRANCHE-COMTE;U23-0400;L'Allan;http://id.eaufrance.fr/CEA/U23-0400;NA;2021-05-12T00:00:00Z;1991-01-01T00:00:00Z;1997-01-31T00:00:00Z;NA;1;16;NA;1;2;600000184;NA;NA;NA;DOUBS;FALSE
U2356610;Le Rupt à Dung;U235661001;Le Rupt à Dung;LIMNI;982415;6717802;26;6.752796456034092;47.50017103023003;1;NA;NA;NA;25207;DUNG;25;27;BOURGOGNE-FRANCHE-COMTE;U2350660;Le Rupt;http://id.eaufrance.fr/CEA/U2350660;NA;2021-01-19T00:00:00Z;1968-08-27T00:00:00Z;NA;NA;1;20;12;1;2;600000184,POH005,POH045,POH106,POH900,RIC063,RIC313;NA;NA;NA;DOUBS;TRUE
U2402010;Le Doubs à Voujeaucourt;U240201001;Le Doubs à Voujeaucourt;LIMNI;983179;6715441;26;6.761439957882233;47.47861510257858;1;Le 04/02/2008 : le producteur DIREN Rhône-Alpes/Bassin RMC est remplacé par la DIREN Franche-Comté.;305280;3;25632;VOUJEAUCOURT;25;27;BOURGOGNE-FRANCHE-COMTE;U2--0200;Le Doubs;http://id.eaufrance.fr/CEA/U2--0200;NA;2021-01-19T00:00:00Z;1969-10-01T00:00:00Z;NA;NA;1;20;12;1;2;600000184,POH005,POH045,POH106,POH900,RIC014,RIC063,RIC113,RIC313;1969-10-01T00:00:00Z;2013-11-18T00:00:00Z;2020-12-22T00:00:00Z;DOUBS;TRUE
U2402020;Le Doubs à Lougres;U240202001;Le Doubs à Lougres;LIMNI;977596;6712722;26;6.6857057306849015;47.456535630599184;NA;NA;297960;2;25350;LOUGRES;25;27;BOURGOGNE-FRANCHE-COMTE;U2--0200;Le Doubs;http://id.eaufrance.fr/CEA/U2--0200;NA;2021-05-12T00:00:00Z;1984-01-01T00:00:00Z;1997-12-31T00:00:00Z;NA;1;20;12;1;2;600000184;1984-01-01T00:00:00Z;2013-11-18T00:00:00Z;2013-11-18T00:00:00Z;DOUBS;FALSE
U2405210;Le Lougres à Lougres;U240521001;Le Lougres à Lougres;LIMNI;978144;6714760;26;6.6942360780249155;47.47463071826635;1;NA;NA;NA;25350;LOUGRES;25;27;BOURGOGNE-FRANCHE-COMTE;U2400520;La Lougres;http://id.eaufrance.fr/CEA/U2400520;NA;2021-05-12T00:00:00Z;1969-10-17T00:00:00Z;1973-03-09T00:00:00Z;NA;1;20;12;1;2;NA;NA;NA;NA;DOUBS;FALSE
U2412010;Le canal du Rhône au Rhin [Le Doubs] à Clerval;U241201001;Le canal du Rhône au Rhin [Le Doubs] à Clerval;LIMNI;964201;6703776;26;6.502831113767394;47.38157448382473;1;NA;273000;2;25156;PAYS DE CLERVAL;25;27;BOURGOGNE-FRANCHE-COMTE;----0022;Canal du Rhône au Rhin;http://id.eaufrance.fr/CEA/----0022;NA;2021-05-12T00:00:00Z;1969-10-28T00:00:00Z;1972-01-14T00:00:00Z;NA;1;20;12;1;2;600000184;1969-10-28T00:00:00Z;2013-11-18T00:00:00Z;2013-11-18T00:00:00Z;DOUBS;FALSE
U2412020;Le canal du Rhône au Rhin [Le Doubs] à Branne;U241202001;Le canal du Rhône au Rhin [Le Doubs] à Branne;LIMNI;960946;6702831;26;6.459182681847834;47.3743670981287;1;NA;269000;2;25087;BRANNE;25;27;BOURGOGNE-FRANCHE-COMTE;----0022;Canal du Rhône au Rhin;http://id.eaufrance.fr/CEA/----0022;NA;2021-05-12T00:00:00Z;1969-10-27T00:00:00Z;1987-01-20T00:00:00Z;NA;1;20;12;1;2;600000184;1969-10-27T00:00:00Z;2013-11-18T00:00:00Z;2013-11-18T00:00:00Z;DOUBS;FALSE
U2415010;Le ruisseau de Soye à Soye;U241501001;Le ruisseau de Soye à Soye;LIMNI;962722;6709995;26;6.486886405305453;47.43809199844168;1;NA;NA;NA;25553;SOYE;25;27;BOURGOGNE-FRANCHE-COMTE;U2410560;Ruisseau de Soye;http://id.eaufrance.fr/CEA/U2410560;NA;2021-05-12T00:00:00Z;1969-10-28T00:00:00Z;1972-12-10T00:00:00Z;NA;1;20;12;1;2;600000184;NA;NA;NA;DOUBS;FALSE
U2415420;Le ruisseau de l'Abbaye à Étrappe [Les Trois Rois];U241542001;Le ruisseau de l'Abbaye à Étrappe [Les Trois Rois];LIMNI;968513;6713222;26;6.565574838732479;47.46478468216892;1;NA;NA;NA;25226;ETRAPPE;25;27;BOURGOGNE-FRANCHE-COMTE;U2410540;Ruisseau de l'Abbaye;http://id.eaufrance.fr/CEA/U2410540;NA;2021-05-12T00:00:00Z;1974-07-12T00:00:00Z;1975-06-27T00:00:00Z;NA;1;20;12;1;2;600000184;NA;NA;NA;DOUBS;FALSE
U2419110;Le Buhin à Sancey-le-Grand;U241911001;Le Buhin à Sancey-le-Grand;LIMNI;967794;6695690;26;6.545593636470351;47.30741182026011;1;Bassin versant karstique.;NA;NA;25529;SANCEY;25;27;BOURGOGNE-FRANCHE-COMTE;U2410900;Ruisseau de Buhin;http://id.eaufrance.fr/CEA/U2410900;NA;2021-05-12T00:00:00Z;1982-02-17T00:00:00Z;1996-10-10T00:00:00Z;NA;1;20;12;1;2;600000184;NA;NA;NA;DOUBS;FALSE
U2425020;Le Sesserant à Silley-Bléfond;U242502001;Le Sesserant à Silley-Bléfond;LIMNI;952436;6696766;26;6.343106683941266;47.32311805026773;1;Bassin versant karstique.;NA;NA;25546;SILLEY-BLEFOND;25;27;BOURGOGNE-FRANCHE-COMTE;U2421020;Le Sesserant;http://id.eaufrance.fr/CEA/U2421020;NA;2021-05-12T00:00:00Z;1973-02-01T00:00:00Z;2000-06-25T00:00:00Z;NA;1;20;12;1;2;600000184;NA;NA;NA;DOUBS;FALSE
U2425030;Le Sesserant à Saint-Juan;U242503001;Le Sesserant à Saint-Juan;LIMNI;951245;6695141;26;6.326446462104334;47.308954967388864;3;Bassin versant karstique.;NA;NA;25520;SAINT-JUAN;25;27;BOURGOGNE-FRANCHE-COMTE;U2421020;Le Sesserant;http://id.eaufrance.fr/CEA/U2421020;NA;2021-02-15T00:00:00Z;1973-01-30T00:00:00Z;1978-09-01T00:00:00Z;NA;1;20;12;1;2;600000184;NA;NA;NA;DOUBS;FALSE
U2425040;L'Audeux à Chaux-lès-Passavant [La Grâce Dieu];U242504001;L'Audeux à Chaux-lès-Passavant [La Grâce Dieu];LIMNI;953088;6688552;26;6.347122693968832;47.24898969565224;3;Bassin versant karstique.;NA;NA;25141;CHAUX-LES-PASSAVANT;25;27;BOURGOGNE-FRANCHE-COMTE;U2420500;L'Audeux;http://id.eaufrance.fr/CEA/U2420500;NA;2021-05-12T00:00:00Z;1973-06-22T00:00:00Z;1979-05-10T00:00:00Z;NA;1;20;12;1;2;600000184;NA;NA;NA;DOUBS;FALSE
U2425050;L'Audeux à Bremondans;U242505001;L'Audeux à Bremondans;LIMNI;956743;6687214;26;6.394641172585716;47.235550921735886;1;Bassin versant karstique.;NA;NA;25089;BREMONDANS;25;27;BOURGOGNE-FRANCHE-COMTE;U2420500;L'Audeux;http://id.eaufrance.fr/CEA/U2420500;NA;2021-05-12T00:00:00Z;1987-05-21T00:00:00Z;1991-03-27T00:00:00Z;NA;1;20;12;1;2;600000184;NA;NA;NA;DOUBS;FALSE
U2425060;L'Audeux à Aïssey;U242506001;L'Audeux à Aïssey;LIMNI;951489;6689408;26;6.326477420974963;47.25729714396629;3;Bassin versant karstique.;NA;NA;25009;AISSEY;25;27;BOURGOGNE-FRANCHE-COMTE;U2420500;L'Audeux;http://id.eaufrance.fr/CEA/U2420500;NA;2021-05-12T00:00:00Z;1987-06-30T00:00:00Z;1991-04-24T00:00:00Z;NA;1;20;12;1;2;600000184;NA;NA;NA;DOUBS;FALSE
U2425070;Le Sesserant à Pont-les-Moulins [Chatel];U242507001;Le Sesserant à Pont-les-Moulins [Chatel];LIMNI;954013;6697531;26;6.364397717743589;47.32939581020939;NA;NA;NA;NA;25465;PONT-LES-MOULINS;25;27;BOURGOGNE-FRANCHE-COMTE;U2421020;Le Sesserant;http://id.eaufrance.fr/CEA/U2421020;NA;2021-10-07T00:00:00Z;2000-05-18T00:00:00Z;NA;NA;1;16;NA;1;2;600000184,POH005,POH045,POH106,POH900,RIC063,RIC313;NA;NA;NA;DOUBS;TRUE
U2425070;Le Sesserant à Pont-les-Moulins [Chatel];U242507002;Le Sesserant à Pont-les-Moulins [Chatel] - pont RD 50;LIMNI;954056.0511812;6697488.2057392;26;6.364943100198799;47.3289944043522;NA;station modernisée en 2021 et déplacée du jardin du particulier au pont de la RD50;NA;NA;25465;PONT-LES-MOULINS;25;27;BOURGOGNE-FRANCHE-COMTE;U2421020;Le Sesserant;http://id.eaufrance.fr/CEA/U2421020;NA;2021-10-22T00:00:00Z;2021-10-01T00:00:00Z;NA;NA;1;16;NA;NA;NA;POH005,POH045,POH106,POH900,RIC063,RIC313;NA;NA;NA;DOUBS;TRUE
U2425210;Le Cusancin à Cusance [source Noire];U242521001;Le Cusancin à Cusance [source Noire];LIMNI;959504;6696984;26;6.436719937805321;47.32234797621594;1;NA;313000;2;25183;CUSANCE;25;27;BOURGOGNE-FRANCHE-COMTE;U2420520;Le Cusancin;http://id.eaufrance.fr/CEA/U2420520;NA;2021-05-12T00:00:00Z;1980-08-07T00:00:00Z;1989-02-22T00:00:00Z;NA;1;20;12;1;2;600000184;1980-08-07T00:00:00Z;2013-11-18T00:00:00Z;2013-11-18T00:00:00Z;DOUBS;FALSE
U2425220;Le torrent des Alloz à Cusance [source Bleue];U242522001;Le torrent des Alloz à Cusance [source Bleue];LIMNI;959559;6697211;26;6.4375781986453084;47.3243680194086;1;NA;307000;2;25183;CUSANCE;25;27;BOURGOGNE-FRANCHE-COMTE;U2421040;Torrent des Alloz;http://id.eaufrance.fr/CEA/U2421040;NA;2021-05-12T00:00:00Z;1980-08-21T00:00:00Z;1986-11-19T00:00:00Z;NA;1;20;12;1;2;600000184;1980-08-21T00:00:00Z;2013-11-18T00:00:00Z;2013-11-18T00:00:00Z;DOUBS;FALSE
U2425230;Le Cusancin à Guillon-les-Bains [Bains-de-Guillon];U242523001;Le Cusancin à Guillon-les-Bains [Bains-de-Guillon];LIMNI;955427;6696617;26;6.382585004380915;47.32063154924461;1;NA;NA;NA;25299;GUILLON-LES-BAINS;25;27;BOURGOGNE-FRANCHE-COMTE;U2420520;Le Cusancin;http://id.eaufrance.fr/CEA/U2420520;NA;2021-05-12T00:00:00Z;1980-08-05T00:00:00Z;1985-01-01T00:00:00Z;NA;1;20;12;1;2;600000184;NA;NA;NA;DOUBS;FALSE
U2425240;Le torrent des Alloz à Cusance;U242524001;Le torrent des Alloz à Cusance;LIMNI;959679;6697167;26;6.4391400958533245;47.323925268405226;3;NA;309000;2;25183;CUSANCE;25;27;BOURGOGNE-FRANCHE-COMTE;U2421040;Torrent des Alloz;http://id.eaufrance.fr/CEA/U2421040;NA;2021-05-12T00:00:00Z;1985-04-03T00:00:00Z;1991-01-02T00:00:00Z;NA;1;20;12;1;2;600000184;1985-04-03T00:00:00Z;2013-11-18T00:00:00Z;2013-11-18T00:00:00Z;DOUBS;FALSE
U2425250;Le Cusancin à Cusance;U242525001;Le Cusancin à Cusance;LIMNI;959055;6697058;26;6.430823683875836;47.3231892347493;1;NA;NA;NA;25183;CUSANCE;25;27;BOURGOGNE-FRANCHE-COMTE;U2420520;Le Cusancin;http://id.eaufrance.fr/CEA/U2420520;NA;2021-10-07T00:00:00Z;1986-11-19T00:00:00Z;NA;NA;1;20;12;1;2;600000184,POH005,POH045,POH106,POH900,RIC063,RIC313;NA;NA;NA;DOUBS;TRUE
U2425260;Le Cusancin à Baume-les-Dames;U242526001;Le Cusancin à Baume-les-Dames;LIMNI;954654;6698513;26;6.373432768006508;47.33798187511442;1;NA;NA;NA;25047;BAUME-LES-DAMES;25;27;BOURGOGNE-FRANCHE-COMTE;U2420520;Le Cusancin;http://id.eaufrance.fr/CEA/U2420520;NA;2021-06-14T00:00:00Z;1969-10-27T00:00:00Z;2018-11-22T00:00:00Z;NA;1;20;12;1;2;600000184,POH005,POH045,POH900;NA;NA;NA;DOUBS;FALSE
U2425260;Le Cusancin à Baume-les-Dames;U242526002;Le Cusancin à Baume-les-Dames - La Lavenne;LIMNI;955193;6699001;26;6.380840871709877;47.3421634937121;1;Station prévue pour remplacer la station du Cusancin à Baume les Dames (U2425260).;NA;NA;25047;BAUME-LES-DAMES;25;27;BOURGOGNE-FRANCHE-COMTE;U2420520;Le Cusancin;http://id.eaufrance.fr/CEA/U2420520;NA;2020-12-22T00:00:00Z;2007-12-01T00:00:00Z;NA;Seuil très large et vannages endommagés : débits peu fiables en basses eaux;1;12;127;1;2;600000184,POH005,POH045,POH106,POH900,RIC063,RIC313;NA;NA;NA;DOUBS;TRUE
U2426010;[La source de la Glaie noire] à Pont-les-Moulins;U242601001;[La source de la Glaie noire] à Pont-les-Moulins;LIMNI;953754;6696484;26;6.360381611926668;47.32007819523417;1;NA;NA;NA;25465;PONT-LES-MOULINS;25;27;BOURGOGNE-FRANCHE-COMTE;00000000;NA;http://id.eaufrance.fr/CEA/00000000;NA;2021-05-12T00:00:00Z;1973-10-31T00:00:00Z;1991-11-21T00:00:00Z;NA;1;20;12;1;2;600000184;NA;NA;NA;DOUBS;FALSE
U2502010;Le Doubs à Esnans [Beaumerousse];U250201001;Le Doubs à Esnans [Beaumerousse];LIMNI;951946;6698667;26;6.337688682724238;47.340402620953064;NA;Altitude (280 m) approximative. Le 04/02/2008 : le producteur DIREN Rhône-Alpes/Bassin RMC est remplacé par DIREN Franche-Comté.;258490;3;25221;ESNANS;25;27;BOURGOGNE-FRANCHE-COMTE;U2--0200;Le Doubs;http://id.eaufrance.fr/CEA/U2--0200;NA;2020-12-22T00:00:00Z;1998-03-01T00:00:00Z;NA;NA;1;20;12;1;2;600000184,POH005,POH045,POH106,POH900,RIC063,RIC113,RIC313;1998-03-01T00:00:00Z;2013-11-18T00:00:00Z;2020-12-22T00:00:00Z;DOUBS;TRUE
U2509010;Le Gour à Champlive [Village];U250901001;Le Gour à Champlive [Village];LIMNI;945376;6692709;26;6.247506926940984;47.28927882659996;3;NA;NA;NA;25116;CHAMPLIVE;25;27;BOURGOGNE-FRANCHE-COMTE;U2500900;Le Gour;http://id.eaufrance.fr/CEA/U2500900;NA;2021-02-15T00:00:00Z;1973-01-31T00:00:00Z;1974-09-01T00:00:00Z;NA;1;20;12;1;2;600000184;NA;NA;NA;DOUBS;FALSE
U2509020;Le Gour [dérivation souterraine] à Champlive;U250902001;Le Gour [dérivation souterraine] à Champlive;LIMNI;944785;6692049;26;6.239335792734204;47.28356070074939;3;NA;NA;NA;25116;CHAMPLIVE;25;27;BOURGOGNE-FRANCHE-COMTE;U2500900;Le Gour;http://id.eaufrance.fr/CEA/U2500900;NA;2021-02-15T00:00:00Z;1973-01-31T00:00:00Z;1978-09-26T00:00:00Z;NA;1;20;12;1;2;600000184;NA;NA;NA;DOUBS;FALSE
U2512010;Le Doubs à Besançon;U251201001;Le Doubs à Besançon;LIMNI;929156;6686616;26;6.029963685161896;47.24027247370978;1;Bassin versant incertain du point de vue géologique. Le 04/02/2008 : le producteur DIREN Rhône-Alpes/Bassin RMC est remplacé par DIREN Franche-Comté.;236000;3;25056;BESANCON;25;27;BOURGOGNE-FRANCHE-COMTE;U2--0200;Le Doubs;http://id.eaufrance.fr/CEA/U2--0200;NA;2021-10-07T00:00:00Z;1920-12-31T00:00:00Z;NA;NA;1;20;12;1;2;600000184,BSH001,BSH052,BSH101,BSH152,POH005,POH045,POH106,POH900,RIC014,RIC063,RIC113,RIC313;1951-12-01T00:00:00Z;2013-11-18T00:00:00Z;2016-07-07T00:00:00Z;DOUBS;TRUE
U2515410;[dérivation] à Chalèze;U251541001;[dérivation] à Chalèze;LIMNI;934119;6689559;26;6.097044761843537;47.26501410180671;1;NA;NA;NA;25111;CHALEZE;25;27;BOURGOGNE-FRANCHE-COMTE;00000000;NA;http://id.eaufrance.fr/CEA/00000000;NA;2021-02-15T00:00:00Z;1974-10-16T00:00:00Z;1985-05-01T00:00:00Z;NA;1;20;12;1;2;600000184;NA;NA;NA;DOUBS;FALSE
U2515420;[La source d'Arcier] à Vaire-Arcier;U251542001;[La source d'Arcier] à Vaire-Arcier;LIMNI;935761;6690044;26;6.1189967555531135;47.26879525662667;3;NA;NA;NA;25575;VAIRE;25;27;BOURGOGNE-FRANCHE-COMTE;00000000;NA;http://id.eaufrance.fr/CEA/00000000;NA;2021-01-19T00:00:00Z;1983-06-15T00:00:00Z;NA;NA;1;20;12;1;2;600000184,POH005,POH045,POH106,POH900,RIC063,RIC313;NA;NA;NA;DOUBS;TRUE
U2515530;[La source Bergeret] à Vaire-Arcier;U251553001;[La source Bergeret] à Vaire-Arcier;LIMNI;935932;6690163;26;6.121318841319393;47.26980490534275;1;NA;NA;NA;25575;VAIRE;25;27;BOURGOGNE-FRANCHE-COMTE;00000000;NA;http://id.eaufrance.fr/CEA/00000000;NA;2021-05-12T00:00:00Z;1984-07-05T00:00:00Z;1986-08-14T00:00:00Z;NA;1;20;12;1;2;600000184;NA;NA;NA;DOUBS;FALSE
U2515532;Le Doubs [source de la Mouillere] à Besançon;U251553201;Le Doubs [source de la Mouillere] à Besançon;LIMNI;928709.0992839;6687139.4980428;26;6.02432540541558;47.24513605848865;NA;station historique 90-94;NA;NA;25056;BESANCON;25;27;BOURGOGNE-FRANCHE-COMTE;U2--0200;Le Doubs;http://id.eaufrance.fr/CEA/U2--0200;NA;2021-02-12T00:00:00Z;1990-01-01T00:00:00Z;1995-01-01T00:00:00Z;NA;1;16;NA;NA;NA;NA;NA;NA;NA;DOUBS;FALSE
U2515532;Le Doubs [source de la Mouillere] à Besançon;U251553202;Le Doubs [source de la Mouillere] à Besançon;LIMNI;928709.0992839;6687139.4980428;26;6.02432540541558;47.24513605848865;NA;station moderne (2020-xxxx);NA;NA;25056;BESANCON;25;27;BOURGOGNE-FRANCHE-COMTE;U2--0200;Le Doubs;http://id.eaufrance.fr/CEA/U2--0200;NA;2021-02-12T00:00:00Z;2020-12-01T00:00:00Z;NA;NA;1;16;NA;NA;NA;NA;NA;NA;NA;DOUBS;TRUE
U2522020;Le Doubs à Avanne-Aveney [Aveney];U252202001;Le Doubs à Avanne-Aveney [Aveney];LIMNI;924210;6681860;26;5.96227035530045;47.19917562185111;NA;NA;230270;2;25036;AVANNE-AVENEY;25;27;BOURGOGNE-FRANCHE-COMTE;U2--0200;Le Doubs;http://id.eaufrance.fr/CEA/U2--0200;NA;2021-05-12T00:00:00Z;1993-01-01T00:00:00Z;1999-01-01T00:00:00Z;NA;1;16;12;1;2;600000184;1993-01-01T00:00:00Z;2013-11-18T00:00:00Z;2013-11-18T00:00:00Z;DOUBS;FALSE
U2540520;L'Arne à Lavans-lès-Dole;U254052001;L'Arne à Lavans-lès-Dole;LIMNI;898805;6676243;26;5.6244161341339565;47.15672756252477;1;NA;NA;NA;39285;LAVANS-LES-DOLE;39;27;BOURGOGNE-FRANCHE-COMTE;U2540520;L'Arne;http://id.eaufrance.fr/CEA/U2540520;NA;2021-02-15T00:00:00Z;1995-10-11T00:00:00Z;NA;NA;1;20;12;1;2;600000184,POH005,POH045,POH106,POH900,RIC063,RIC313;NA;NA;NA;JURA;TRUE
U2542010;Le Doubs à Rochefort-sur-Nenon;U254201001;Le Doubs à Rochefort-sur-Nenon;LIMNI;894229;6672322;26;5.562372403935209;47.122798815498136;1;Bassin versant incertain du point de vue géologique. Le 04/02/2008 : le producteur DIREN Rhône-Alpes/Bassin RMC est remplacé par DIREN Franche-Comté.;201000;3;39462;ROCHEFORT-SUR-NENON;39;27;BOURGOGNE-FRANCHE-COMTE;U2--0200;Le Doubs;http://id.eaufrance.fr/CEA/U2--0200;NA;2021-01-19T00:00:00Z;1959-12-10T00:00:00Z;NA;NA;1;20;12;1;2;600000184,POH005,POH045,POH106,POH900,RIC063,RIC113,RIC313;1959-12-10T00:00:00Z;2013-11-18T00:00:00Z;2020-12-22T00:00:00Z;JURA;TRUE
U2552010;Le Doubs à Dole;U255201001;Le Doubs à Dole;LIMNI;889062;6668363;26;5.492604341317759;47.088662671458216;1;Le 04/02/2008 : le producteur DIREN Rhône-Alpes/Bassin RMC est remplacé par la DIREN Franche-Comté.;195000;3;39198;DOLE;39;27;BOURGOGNE-FRANCHE-COMTE;U2--0200;Le Doubs;http://id.eaufrance.fr/CEA/U2--0200;NA;2021-01-19T00:00:00Z;1992-10-01T00:00:00Z;NA;NA;1;20;2;1;2;600000184,POH005,POH045,POH106,POH900,RIC063,RIC113,RIC313;1992-10-01T00:00:00Z;2013-11-18T00:00:00Z;2020-12-22T00:00:00Z;JURA;TRUE
U2565010;La Clauge à Villette-lès-Dole [Arcore];U256501001;La Clauge à Villette-lès-Dole [Arcore];LIMNI;888172;6663086;26;5.478695050067601;47.0414285297943;1;NA;NA;NA;39573;VILLETTE-LES-DOLE;39;27;BOURGOGNE-FRANCHE-COMTE;U2560500;La Clauge;http://id.eaufrance.fr/CEA/U2560500;NA;2021-05-12T00:00:00Z;1974-03-13T00:00:00Z;1983-02-23T00:00:00Z;NA;1;20;12;1;2;600000184;NA;NA;NA;JURA;FALSE
U2565020;La Clauge à la Loye;U256502001;La Clauge à la Loye;LIMNI;892831;6662591;26;5.539814245028661;47.035641420077;1;NA;NA;NA;39305;LOYE;39;27;BOURGOGNE-FRANCHE-COMTE;U2560500;La Clauge;http://id.eaufrance.fr/CEA/U2560500;NA;2021-01-19T00:00:00Z;1983-09-27T00:00:00Z;NA;NA;1;20;12;1;2;600000184,BSH001,BSH052,BSH101,BSH152,POH005,POH045,POH106,POH900,RIC063,RIC313;NA;NA;NA;JURA;TRUE
U2604030;La Loue à Vuillafans;U260403001;La Loue à Vuillafans;LIMNI;944905;6666701;26;6.227220153195439;47.05550339392188;1;Bassin versant incertain du point de vue géologique. Le 04/02/2008 : le producteur DIREN Rhône-Alpes/Bassin RMC est remplacé par DIREN Franche-Comté.;349000;3;25633;VUILLAFANS;25;27;BOURGOGNE-FRANCHE-COMTE;U26-0400;La Loue;http://id.eaufrance.fr/CEA/U26-0400;NA;2021-01-19T00:00:00Z;1953-04-27T00:00:00Z;NA;NA;1;20;12;1;2;600000184,POH005,POH045,POH106,POH900,RIC063,RIC113,RIC313;1953-04-27T00:00:00Z;2013-11-18T00:00:00Z;2020-12-22T00:00:00Z;DOUBS;TRUE
U2604040;La Loue à Ornans;U260404001;La Loue à Ornans;LIMNI;938523;6672075;26;6.146031778987798;47.10616508806901;1;Le 04/02/2008 : le producteur DIREN Rhône-Alpes/Bassin RMC est remplacé par la DIREN Franche-Comté.;326000;3;25434;ORNANS;25;27;BOURGOGNE-FRANCHE-COMTE;U26-0400;La Loue;http://id.eaufrance.fr/CEA/U26-0400;NA;2020-12-22T00:00:00Z;1991-07-25T00:00:00Z;NA;NA;1;20;2;1;2;600000184,POH005,POH045,POH106,POH900,RIC014,RIC063,RIC113,RIC313;1991-07-25T00:00:00Z;2013-11-18T00:00:00Z;2020-12-22T00:00:00Z;DOUBS;TRUE
U2604050;La Loue [source vasque] à Ouhans;U260405001;La Loue [source vasque] à Ouhans;DEB;950549;6662043;26;6.298945097626957;47.01150256474006;3;NA;NA;NA;25440;OUHANS;25;27;BOURGOGNE-FRANCHE-COMTE;U26-0400;La Loue;http://id.eaufrance.fr/CEA/U26-0400;station débitmétrique de la vasque en rive gauche;2021-02-15T00:00:00Z;2002-03-13T00:00:00Z;NA;NA;1;20;12;1;2;600000184,POH005,POH045,POH106,POH900,RIC063,RIC313;NA;NA;NA;DOUBS;TRUE
U2604050;La Loue [source vasque] à Ouhans;U260405002;La Loue [source vasque] à Ouhans - cote RD;LIMNI;950549;6662043;26;6.298945097626957;47.01150256474006;NA;station cote rive droite (dans tube rive droite);NA;NA;25440;OUHANS;25;27;BOURGOGNE-FRANCHE-COMTE;U26-0400;La Loue;http://id.eaufrance.fr/CEA/U26-0400;station historique installée en rive droite (donc en aval de la prise d'eau d'EDF). Des mesures de hauteur et de débit (mesures au saumon station de l'université) ont été effectuées entre 1993 et 1998. après bascule H2 H3, données récentes (post 2019) à basculer sur station débitmétrie U2604055;2021-02-15T00:00:00Z;1993-09-10T00:00:00Z;NA;NA;1;16;NA;NA;NA;NA;NA;NA;NA;DOUBS;TRUE
U2604060;La Loue [source canal] à Ouhans;U260406001;La Loue [source canal] à Ouhans;LIMNI;950546;6662056;26;6.298912789967118;47.01162063437776;3;NA;NA;NA;25440;OUHANS;25;27;BOURGOGNE-FRANCHE-COMTE;U26-0400;La Loue;http://id.eaufrance.fr/CEA/U26-0400;NA;2021-01-19T00:00:00Z;1993-11-05T00:00:00Z;NA;NA;1;20;12;1;2;600000184,POH005,POH045,POH106,POH900,RIC063,RIC313;NA;NA;NA;DOUBS;TRUE
U2604075;La Loue à Ouhans;U260407501;La Loue à Ouhans;LIMNI;639402;6570054;26;2.2137435187065067;46.2276293939273;NA;somme de la source de la loue (vasque) et de loue source canal;NA;NA;25440;OUHANS;25;27;BOURGOGNE-FRANCHE-COMTE;U26-0400;La Loue;http://id.eaufrance.fr/CEA/U26-0400;NA;2021-02-15T00:00:00Z;1993-01-01T00:00:00Z;NA;NA;1;16;NA;NA;NA;NA;NA;NA;NA;DOUBS;TRUE
U2615820;Le Lison [source] à Nans-sous-Sainte-Anne;U261582001;Le Lison [source] à Nans-sous-Sainte-Anne;LIMNI;928943;6656009;26;6.0117220927180615;46.96499044036593;1;NA;NA;NA;25420;"NANS-SOUS-SAINTE-ANNE";25;27;BOURGOGNE-FRANCHE-COMTE;U2610580;Le Lison;http://id.eaufrance.fr/CEA/U2610580;NA;2021-05-12T00:00:00Z;1976-09-28T00:00:00Z;NA;NA;1;20;12;1;2;600000184,POH005,POH045,POH106,POH900,RIC063,RIC313;NA;NA;NA;DOUBS;TRUE
U2615830;Le Lison à Myon;U261583001;Le Lison à Myon - RG technolog puis sonde;LIMNI;924552;6663239;26;5.957574121623406;47.03153246585997;1;Zéro échelle précédente: 317.000 m en NGF 1884 - 12/07/1968 à 12:01 station modernisée (de technolog à LNS + IP) et passée en RD en juin 2020;317000;2;25416;MYON;25;27;BOURGOGNE-FRANCHE-COMTE;U2610580;Le Lison;http://id.eaufrance.fr/CEA/U2610580;NA;2021-06-14T00:00:00Z;1968-07-12T00:00:00Z;2021-06-16T00:00:00Z;NA;1;20;12;1;2;600000184,BSH001,BSH052,BSH101,BSH152,POH005,POH045,POH106,POH900;1968-07-12T00:00:00Z;2013-11-18T00:00:00Z;2020-06-08T00:00:00Z;DOUBS;FALSE
